pose: 
  position: 
    x: 0.671229587447
    y: -0.26098818009
    z: 0.0229720448061
  orientation: 
    x: 0.687169578384
    y: 0.0207411665063
    z: 0.725999796907
    w: 0.017090039398
twist: 
  linear: 
    x: 0.0325547039783
    y: -0.0328054364375
    z: -0.00166048664674
  angular: 
    x: -0.0360263592847
    y: -0.0237209737736
    z: -0.0393620007035
wrench: 
  force: 
    x: 2.73077869415
    y: 3.06829786301
    z: -9.54109764099
  torque: 
    x: -0.370426416397
    y: -1.02824807167
    z: -0.896166205406
---
pose: 
  position: 
    x: 0.671241074135
    y: -0.26037227106
    z: 0.0226511493433
  orientation: 
    x: 0.68742407889
    y: 0.0205439019573
    z: 0.72578877899
    w: 0.0160228632637
twist: 
  linear: 
    x: 0.0391918264849
    y: -0.0292838554441
    z: -0.000162867097871
  angular: 
    x: -0.0020493401701
    y: -0.0433526157368
    z: -0.0379140725879
wrench: 
  force: 
    x: 2.24765110016
    y: 3.03703355789
    z: -8.98210525513
  torque: 
    x: -0.361796557903
    y: -0.891309916973
    z: -0.871733129025
---
pose: 
  position: 
    x: 0.67153102786
    y: -0.260159627618
    z: 0.0226993243584
  orientation: 
    x: 0.687274684292
    y: 0.0204947262445
    z: 0.725927624143
    w: 0.016203673449
twist: 
  linear: 
    x: 0.0369602189485
    y: 0.00373659685467
    z: 0.00505288759057
  angular: 
    x: 0.0230653268166
    y: -0.0489807384347
    z: 0.0261071387862
wrench: 
  force: 
    x: 2.20841813087
    y: 3.2252573967
    z: -8.89418983459
  torque: 
    x: -0.293059796095
    y: -0.855549693108
    z: -1.02660942078
---
pose: 
  position: 
    x: 0.672356662539
    y: -0.259869248928
    z: 0.0230647641413
  orientation: 
    x: 0.686832661877
    y: 0.0210260945375
    z: 0.726329910448
    w: 0.0162375834326
twist: 
  linear: 
    x: 0.0270470722758
    y: 0.0049366752759
    z: -0.00227109970251
  angular: 
    x: 0.0160577389008
    y: -0.0258008636631
    z: 0.00338612100577
wrench: 
  force: 
    x: 2.39150595665
    y: 3.12336802483
    z: -9.40407466888
  torque: 
    x: -0.361001253128
    y: -1.00096309185
    z: -0.905391871929
---
pose: 
  position: 
    x: 0.672336541889
    y: -0.260501499378
    z: 0.0229050612005
  orientation: 
    x: 0.686865048053
    y: 0.0203502163183
    z: 0.726321365667
    w: 0.0161105007243
twist: 
  linear: 
    x: 0.0405454504002
    y: -0.0013605022574
    z: 0.0114696901688
  angular: 
    x: -0.0291600160009
    y: -0.0575779167238
    z: -0.00743370784987
wrench: 
  force: 
    x: 2.83941745758
    y: 2.63890480995
    z: -10.0449886322
  torque: 
    x: -0.376079291105
    y: -1.15640223026
    z: -0.746916234493
---
pose: 
  position: 
    x: 0.672767366423
    y: -0.259676871027
    z: 0.0229592621721
  orientation: 
    x: 0.686812412898
    y: 0.0211024547321
    z: 0.726357043349
    w: 0.015774709866
twist: 
  linear: 
    x: 0.0302755407307
    y: -0.00103990167705
    z: 0.00440652595885
  angular: 
    x: 0.00522906730089
    y: -0.0263140201952
    z: 0.00313834414965
wrench: 
  force: 
    x: 2.98863005638
    y: 2.84140324593
    z: -9.97703742981
  torque: 
    x: -0.404865592718
    y: -1.08194828033
    z: -0.803904056549
---
pose: 
  position: 
    x: 0.673021501924
    y: -0.259514564865
    z: 0.0229126200141
  orientation: 
    x: 0.686416396132
    y: 0.020655345454
    z: 0.726747621943
    w: 0.0156135141959
twist: 
  linear: 
    x: 0.0223402308273
    y: 0.0060767051986
    z: -0.0115706635741
  angular: 
    x: 0.0017065895233
    y: 0.00226929339863
    z: 0.0174108415419
wrench: 
  force: 
    x: 2.98074698448
    y: 2.70884490013
    z: -9.46741676331
  torque: 
    x: -0.400589972734
    y: -0.898061454296
    z: -0.725881457329
---
pose: 
  position: 
    x: 0.67342369605
    y: -0.260356003876
    z: 0.0230220984901
  orientation: 
    x: 0.686448445619
    y: 0.0209897839439
    z: 0.726687835036
    w: 0.0165151714547
twist: 
  linear: 
    x: 0.0303890994588
    y: 0.00710424682361
    z: 0.00493469221841
  angular: 
    x: -0.00844062901473
    y: -0.032391451662
    z: 0.0198170280513
wrench: 
  force: 
    x: 3.03294849396
    y: 2.81359004974
    z: -9.45462608337
  torque: 
    x: -0.382894814014
    y: -0.86671179533
    z: -0.793542206287
---
pose: 
  position: 
    x: 0.673708721891
    y: -0.259862994623
    z: 0.0229667215955
  orientation: 
    x: 0.686428682567
    y: 0.0209797121228
    z: 0.726719828375
    w: 0.0159313048697
twist: 
  linear: 
    x: 0.0299008544627
    y: 0.00348080452211
    z: -0.00629613914784
  angular: 
    x: -0.00937190894827
    y: -0.013564250765
    z: 0.0125864185433
wrench: 
  force: 
    x: 3.38001847267
    y: 2.79468154907
    z: -9.86215496063
  torque: 
    x: -0.416541397572
    y: -0.955464065075
    z: -0.755506515503
---
pose: 
  position: 
    x: 0.673866859456
    y: -0.259920621265
    z: 0.0227322321841
  orientation: 
    x: 0.686695297136
    y: 0.0210308178234
    z: 0.726460845557
    w: 0.0161837407913
twist: 
  linear: 
    x: 0.0417704369742
    y: 0.000216791309242
    z: 0.00206808960701
  angular: 
    x: -0.00856186853986
    y: -0.0570348721654
    z: 0.00780633066273
wrench: 
  force: 
    x: 3.51105761528
    y: 2.70193457603
    z: -9.84982872009
  torque: 
    x: -0.403436690569
    y: -0.933752536774
    z: -0.743069648743
---
pose: 
  position: 
    x: 0.674236466097
    y: -0.260740229616
    z: 0.0224015402974
  orientation: 
    x: 0.686587825248
    y: 0.0207611610282
    z: 0.726562611475
    w: 0.016519806904
twist: 
  linear: 
    x: 0.037870488606
    y: -0.00466969841563
    z: 0.00496868279472
  angular: 
    x: 0.0149594400547
    y: -0.0574674148993
    z: -0.0177332846548
wrench: 
  force: 
    x: 3.26986455917
    y: 2.56105804443
    z: -9.01620674133
  torque: 
    x: -0.346560865641
    y: -0.678634643555
    z: -0.797656655312
---
pose: 
  position: 
    x: 0.675319985453
    y: -0.260361540115
    z: 0.0233553770761
  orientation: 
    x: 0.685465706299
    y: 0.02104188151
    z: 0.727616513908
    w: 0.0163772219742
twist: 
  linear: 
    x: 0.0355070635034
    y: -0.00908224005542
    z: -0.00405644829417
  angular: 
    x: -0.0242741188286
    y: -0.00779594965808
    z: -0.0155880291933
wrench: 
  force: 
    x: 2.60451102257
    y: 2.57357597351
    z: -8.21018218994
  torque: 
    x: -0.410803288221
    y: -0.473375856876
    z: -0.705780446529
---
pose: 
  position: 
    x: 0.675179958318
    y: -0.260831640004
    z: 0.0226673312706
  orientation: 
    x: 0.686052977191
    y: 0.0207137560038
    z: 0.727069211487
    w: 0.0165110420166
twist: 
  linear: 
    x: 0.0334772078733
    y: -0.0248947658313
    z: -0.0109447307265
  angular: 
    x: -0.027889637675
    y: -0.0096352327335
    z: -0.0312241724269
wrench: 
  force: 
    x: 2.59805250168
    y: 3.01179242134
    z: -8.46031665802
  torque: 
    x: -0.335565894842
    y: -0.558241188526
    z: -0.915042519569
---
pose: 
  position: 
    x: 0.675444120429
    y: -0.260784773338
    z: 0.0229266997884
  orientation: 
    x: 0.685777018338
    y: 0.020973320431
    z: 0.727321138035
    w: 0.0165518312105
twist: 
  linear: 
    x: 0.0338289065189
    y: -0.0178196528555
    z: -0.00667236247825
  angular: 
    x: -0.0240700840401
    y: -0.0166480777475
    z: -0.0118275796265
wrench: 
  force: 
    x: 3.21783208847
    y: 2.57617712021
    z: -9.28903198242
  torque: 
    x: -0.390517920256
    y: -0.770625650883
    z: -0.684959709644
---
pose: 
  position: 
    x: 0.675884654036
    y: -0.260898581871
    z: 0.0227215480481
  orientation: 
    x: 0.685928797693
    y: 0.0204825381263
    z: 0.727187529813
    w: 0.0167465402552
twist: 
  linear: 
    x: 0.0352303757422
    y: 0.00317407051928
    z: -0.000643682341312
  angular: 
    x: 0.0403404966645
    y: -0.0347012978626
    z: 0.0196058149049
wrench: 
  force: 
    x: 3.48666954041
    y: 2.83652663231
    z: -9.57734107971
  torque: 
    x: -0.361565709114
    y: -0.86600446701
    z: -0.827118337154
---
pose: 
  position: 
    x: 0.676283381962
    y: -0.260618672133
    z: 0.0228365700842
  orientation: 
    x: 0.685627602004
    y: 0.020355790423
    z: 0.727494968254
    w: 0.0158588881143
twist: 
  linear: 
    x: 0.0328489936276
    y: 0.0036616442994
    z: -0.00400625949095
  angular: 
    x: 0.0703100693828
    y: -0.0139328284228
    z: 0.01706195673
wrench: 
  force: 
    x: 2.81711149216
    y: 2.82826304436
    z: -8.47673225403
  torque: 
    x: -0.339751183987
    y: -0.630826473236
    z: -0.819858968258
---
pose: 
  position: 
    x: 0.676995995233
    y: -0.259602336902
    z: 0.0231864574628
  orientation: 
    x: 0.685460830678
    y: 0.0209102704119
    z: 0.72765411758
    w: 0.015023160997
twist: 
  linear: 
    x: 0.0465166580713
    y: 0.00812407407394
    z: 0.0120279983814
  angular: 
    x: 0.0721315688357
    y: -0.0436785854176
    z: 0.0196140527431
wrench: 
  force: 
    x: 2.40315508842
    y: 2.54448080063
    z: -8.06850337982
  torque: 
    x: -0.387373358011
    y: -0.554837942123
    z: -0.682583630085
---
pose: 
  position: 
    x: 0.676827857406
    y: -0.260495970923
    z: 0.0227956729852
  orientation: 
    x: 0.685647279013
    y: 0.0203981453241
    z: 0.727486369528
    w: 0.0153397066973
twist: 
  linear: 
    x: 0.0302161002322
    y: -0.0176194381733
    z: -0.00644804547798
  angular: 
    x: 0.0331391079795
    y: 0.0105880480522
    z: 0.00213640949176
wrench: 
  force: 
    x: 3.09660434723
    y: 2.69805550575
    z: -9.35898017883
  torque: 
    x: -0.345380425453
    y: -0.905380725861
    z: -0.76075553894
---
pose: 
  position: 
    x: 0.677391266085
    y: -0.260321427616
    z: 0.022784906826
  orientation: 
    x: 0.685478379758
    y: 0.0204116687883
    z: 0.727645319805
    w: 0.0153311196033
twist: 
  linear: 
    x: 0.0423412990417
    y: -0.0122119840297
    z: 0.0013357774267
  angular: 
    x: 0.0114223515699
    y: -0.041386626241
    z: -0.00404175997339
wrench: 
  force: 
    x: 3.57008385658
    y: 2.82861542702
    z: -10.1333675385
  torque: 
    x: -0.350926369429
    y: -1.09993195534
    z: -0.771127700806
---
pose: 
  position: 
    x: 0.677904714118
    y: -0.261219347495
    z: 0.0229084379391
  orientation: 
    x: 0.685258662475
    y: 0.0204982469518
    z: 0.727834782286
    w: 0.016028632825
twist: 
  linear: 
    x: 0.052021551389
    y: -0.0244889437849
    z: 0.00789013084773
  angular: 
    x: -0.0143716453187
    y: -0.0547213189851
    z: -0.0275705124607
wrench: 
  force: 
    x: 2.69633579254
    y: 2.33106541634
    z: -8.90972232819
  torque: 
    x: -0.332490593195
    y: -0.77651321888
    z: -0.697353303432
---
pose: 
  position: 
    x: 0.67860259667
    y: -0.260540601022
    z: 0.0229694946482
  orientation: 
    x: 0.685112532849
    y: 0.0206912977822
    z: 0.727981012757
    w: 0.0153731127059
twist: 
  linear: 
    x: 0.0479218313253
    y: -0.00525262628461
    z: 0.010452836737
  angular: 
    x: -0.0327475100735
    y: -0.0471945745042
    z: 0.0153802928376
wrench: 
  force: 
    x: 2.12026381493
    y: 2.88459086418
    z: -8.78201293945
  torque: 
    x: -0.323203861713
    y: -0.760799348354
    z: -0.84871250391
---
pose: 
  position: 
    x: 0.67890203386
    y: -0.261020084932
    z: 0.0228103952547
  orientation: 
    x: 0.685254085355
    y: 0.020269221907
    z: 0.727847294721
    w: 0.0159471851549
twist: 
  linear: 
    x: 0.0413200458068
    y: 0.000373066315912
    z: -0.00222425930132
  angular: 
    x: 0.00143538646625
    y: -0.018827049516
    z: 0.0120744416204
wrench: 
  force: 
    x: 2.67978858948
    y: 2.65978980064
    z: -9.69962215424
  torque: 
    x: -0.368948996067
    y: -0.956612229347
    z: -0.750376522541
---
pose: 
  position: 
    x: 0.67956380581
    y: -0.261265899302
    z: 0.0231820515831
  orientation: 
    x: 0.684677713752
    y: 0.0207135620094
    z: 0.728370359317
    w: 0.0162479632003
twist: 
  linear: 
    x: 0.0384688437088
    y: 0.00402010746708
    z: 0.00562671131379
  angular: 
    x: -0.0134259460385
    y: -0.0388141539464
    z: 0.00702833164854
wrench: 
  force: 
    x: 3.23531484604
    y: 2.30230307579
    z: -9.85708618164
  torque: 
    x: -0.344847142696
    y: -0.945396542549
    z: -0.630831241608
---
pose: 
  position: 
    x: 0.679709624964
    y: -0.260784888099
    z: 0.0227952142758
  orientation: 
    x: 0.684946534472
    y: 0.0210120869806
    z: 0.728115426931
    w: 0.0159581383906
twist: 
  linear: 
    x: 0.0387985859648
    y: -0.0118644943916
    z: -0.00390858525041
  angular: 
    x: -0.0138325081109
    y: -0.0322620719396
    z: -0.0282795489572
wrench: 
  force: 
    x: 2.48335671425
    y: 2.71953105927
    z: -7.98921251297
  torque: 
    x: -0.377844214439
    y: -0.428933739662
    z: -0.765061378479
---
pose: 
  position: 
    x: 0.679409462355
    y: -0.261650208673
    z: 0.021737869802
  orientation: 
    x: 0.685685346128
    y: 0.0206596155573
    z: 0.727420671011
    w: 0.0163692937018
twist: 
  linear: 
    x: 0.0363880407823
    y: -0.0205536563455
    z: -0.0128946403887
  angular: 
    x: -0.0352966412614
    y: 0.00789126431143
    z: -0.0161761420764
wrench: 
  force: 
    x: 2.36779546738
    y: 2.70845460892
    z: -7.5608830452
  torque: 
    x: -0.39799952507
    y: -0.282019585371
    z: -0.71292757988
---
pose: 
  position: 
    x: 0.680515401735
    y: -0.261802562865
    z: 0.0227571805269
  orientation: 
    x: 0.68470736676
    y: 0.0204432843871
    z: 0.728344945801
    w: 0.0164782873262
twist: 
  linear: 
    x: 0.0317110675476
    y: -0.0321735265779
    z: -0.0121231037894
  angular: 
    x: -0.0143906075939
    y: -0.00726761400137
    z: -0.0266836872452
wrench: 
  force: 
    x: 2.98271989822
    y: 2.72119951248
    z: -8.3071603775
  torque: 
    x: -0.375582695007
    y: -0.436165452003
    z: -0.771046102047
---
pose: 
  position: 
    x: 0.680667875277
    y: -0.26158205327
    z: 0.0223856518029
  orientation: 
    x: 0.685149134303
    y: 0.0202702483639
    z: 0.727946411855
    w: 0.0159311726946
twist: 
  linear: 
    x: 0.0436235869417
    y: -0.00742257847729
    z: 0.00580981385308
  angular: 
    x: 0.021886359628
    y: -0.0436313338091
    z: 0.00275782109202
wrench: 
  force: 
    x: 3.60820221901
    y: 2.86279606819
    z: -8.77972412109
  torque: 
    x: -0.305322885513
    y: -0.539585232735
    z: -0.845806777477
---
pose: 
  position: 
    x: 0.681093892734
    y: -0.261289938211
    z: 0.0230094722845
  orientation: 
    x: 0.684569941154
    y: 0.0202879252541
    z: 0.728489713996
    w: 0.015972863195
twist: 
  linear: 
    x: 0.0463419688504
    y: 0.00130186359154
    z: 0.00322179685404
  angular: 
    x: 0.0290421935401
    y: -0.0359972603086
    z: 0.0123903169972
wrench: 
  force: 
    x: 3.14021801949
    y: 2.61373472214
    z: -8.1633272171
  torque: 
    x: -0.354848116636
    y: -0.366235285997
    z: -0.723041236401
---
pose: 
  position: 
    x: 0.681487896625
    y: -0.261258238049
    z: 0.022509083879
  orientation: 
    x: 0.684697233857
    y: 0.0204946682602
    z: 0.728371095514
    w: 0.0156593020495
twist: 
  linear: 
    x: 0.0434886465402
    y: 0.0178757593741
    z: -0.000314361050931
  angular: 
    x: 0.030989153848
    y: -0.026884614188
    z: 0.0263816443527
wrench: 
  force: 
    x: 2.54712915421
    y: 3.18616986275
    z: -7.63817024231
  torque: 
    x: -0.269517630339
    y: -0.209831833839
    z: -0.977994441986
---
pose: 
  position: 
    x: 0.681903755621
    y: -0.261611356875
    z: 0.0223919022207
  orientation: 
    x: 0.684716339919
    y: 0.0201847355583
    z: 0.728357676311
    w: 0.0158494686945
twist: 
  linear: 
    x: 0.0335962236566
    y: -0.00646149871454
    z: -0.00913320934407
  angular: 
    x: -0.000688903150688
    y: -0.00981185835458
    z: 0.000677871528693
wrench: 
  force: 
    x: 2.76948952675
    y: 2.85809850693
    z: -8.01629924774
  torque: 
    x: -0.343911767006
    y: -0.297217100859
    z: -0.814112901688
---
pose: 
  position: 
    x: 0.682583253786
    y: -0.261090347671
    z: 0.0230277518875
  orientation: 
    x: 0.684002775492
    y: 0.0204170020909
    z: 0.729032175917
    w: 0.015343911587
twist: 
  linear: 
    x: 0.0315641985689
    y: -0.0124112177038
    z: -0.00331807591952
  angular: 
    x: 0.00552859887414
    y: -0.0100787407438
    z: -0.0147449702708
wrench: 
  force: 
    x: 3.60701942444
    y: 2.3015165329
    z: -9.02404022217
  torque: 
    x: -0.36268979311
    y: -0.605219841003
    z: -0.587851822376
---
pose: 
  position: 
    x: 0.682851135332
    y: -0.261605388158
    z: 0.022932434067
  orientation: 
    x: 0.684036907899
    y: 0.0199530481747
    z: 0.729011925207
    w: 0.0153947200988
twist: 
  linear: 
    x: 0.0403960887898
    y: -0.00344213116854
    z: 0.00873482436359
  angular: 
    x: 0.0215978783801
    y: -0.0483197059789
    z: 0.0114526440675
wrench: 
  force: 
    x: 3.72354960442
    y: 2.29119348526
    z: -9.01935386658
  torque: 
    x: -0.368474721909
    y: -0.646809518337
    z: -0.606150865555
---
pose: 
  position: 
    x: 0.682979697908
    y: -0.261944816863
    z: 0.0224999139469
  orientation: 
    x: 0.684191996504
    y: 0.0197484868596
    z: 0.728865242518
    w: 0.0157088330753
twist: 
  linear: 
    x: 0.0391475536995
    y: -0.0114175364574
    z: 0.00640552925149
  angular: 
    x: 0.0410354654463
    y: -0.041230196514
    z: -0.00730629477399
wrench: 
  force: 
    x: 2.63955426216
    y: 2.81037068367
    z: -8.38328361511
  torque: 
    x: -0.330519169569
    y: -0.522452414036
    z: -0.80245244503
---
pose: 
  position: 
    x: 0.68326469223
    y: -0.261778227885
    z: 0.0227044957569
  orientation: 
    x: 0.684190341614
    y: 0.0198660936196
    z: 0.728872884233
    w: 0.0152719807422
twist: 
  linear: 
    x: 0.0355843726225
    y: 0.00720038163192
    z: 0.000151372042016
  angular: 
    x: 0.0414807878368
    y: -0.0232849890009
    z: 0.0124111903678
wrench: 
  force: 
    x: 2.76287078857
    y: 2.55623579025
    z: -7.90642738342
  torque: 
    x: -0.302093982697
    y: -0.412705004215
    z: -0.760217189789
---
pose: 
  position: 
    x: 0.684074000932
    y: -0.262014787035
    z: 0.0230222179588
  orientation: 
    x: 0.683489979672
    y: 0.0199324632094
    z: 0.729513327728
    w: 0.0159514659157
twist: 
  linear: 
    x: 0.043771787073
    y: -0.000138070855907
    z: 0.00256556081744
  angular: 
    x: 0.0208472059754
    y: -0.0418769862285
    z: 0.0142599596053
wrench: 
  force: 
    x: 3.70214772224
    y: 2.41793489456
    z: -9.91710567474
  torque: 
    x: -0.376719743013
    y: -0.990814268589
    z: -0.629028975964
---
pose: 
  position: 
    x: 0.684187441664
    y: -0.261846444966
    z: 0.0226951960453
  orientation: 
    x: 0.68348949021
    y: 0.0200139981774
    z: 0.729520721681
    w: 0.0155265349225
twist: 
  linear: 
    x: 0.0455788698007
    y: -0.00698604297546
    z: 0.0048064844789
  angular: 
    x: -0.0133054872198
    y: -0.0544531645836
    z: 0.0107263730402
wrench: 
  force: 
    x: 3.51310801506
    y: 2.67771291733
    z: -10.0099277496
  torque: 
    x: -0.357839226723
    y: -1.01372909546
    z: -0.709416627884
---
pose: 
  position: 
    x: 0.684732978726
    y: -0.261758413989
    z: 0.0229262557092
  orientation: 
    x: 0.683340366915
    y: 0.0204876564896
    z: 0.729653458291
    w: 0.0152325204738
twist: 
  linear: 
    x: 0.0444922990521
    y: -0.0203588126154
    z: 0.00144252806692
  angular: 
    x: -0.051693992178
    y: -0.0517435672299
    z: -0.0105427740283
wrench: 
  force: 
    x: 2.30674386024
    y: 2.52568268776
    z: -7.82428503036
  torque: 
    x: -0.299047321081
    y: -0.44786632061
    z: -0.750319242477
---
pose: 
  position: 
    x: 0.684889266154
    y: -0.262034099063
    z: 0.0227871701925
  orientation: 
    x: 0.683502887313
    y: 0.0199525714361
    z: 0.729512125152
    w: 0.0154193769207
twist: 
  linear: 
    x: 0.0376755730587
    y: 0.00710259744963
    z: -0.00394886314177
  angular: 
    x: 0.0120676440949
    y: -0.021347684339
    z: 0.028920880834
wrench: 
  force: 
    x: 2.61935067177
    y: 2.47998976707
    z: -7.77350139618
  torque: 
    x: -0.399377405643
    y: -0.411667376757
    z: -0.647715806961
---
pose: 
  position: 
    x: 0.685447410615
    y: -0.262503171893
    z: 0.022879337246
  orientation: 
    x: 0.683385322618
    y: 0.0198207490628
    z: 0.729611775946
    w: 0.0160715630506
twist: 
  linear: 
    x: 0.0349797281711
    y: -0.00928282527415
    z: -2.60729984528e-05
  angular: 
    x: 0.0230363283041
    y: -0.0151232852423
    z: -5.06838961748e-05
wrench: 
  force: 
    x: 3.483948946
    y: 2.50827527046
    z: -8.63111782074
  torque: 
    x: -0.348445236683
    y: -0.642842113972
    z: -0.691706418991
---
pose: 
  position: 
    x: 0.685973580967
    y: -0.262288370925
    z: 0.0229278383105
  orientation: 
    x: 0.683107826804
    y: 0.0201819921559
    z: 0.729870027702
    w: 0.015688429333
twist: 
  linear: 
    x: 0.0448956692421
    y: -0.00311078685259
    z: 0.00386114240891
  angular: 
    x: -0.00299995107049
    y: -0.0539703396156
    z: 0.00433721778092
wrench: 
  force: 
    x: 3.51587915421
    y: 2.55190706253
    z: -8.57389068604
  torque: 
    x: -0.33575373888
    y: -0.572292566299
    z: -0.731590867043
---
pose: 
  position: 
    x: 0.686376712686
    y: -0.262769788578
    z: 0.0229410263088
  orientation: 
    x: 0.683110847224
    y: 0.0205601854604
    z: 0.729847470676
    w: 0.0161095848948
twist: 
  linear: 
    x: 0.032997508216
    y: -0.00397778064929
    z: -0.0105048985446
  angular: 
    x: 0.000249685046152
    y: -0.0111147085966
    z: -0.00808381596325
wrench: 
  force: 
    x: 2.79373621941
    y: 2.58629751205
    z: -7.34175872803
  torque: 
    x: -0.32672303915
    y: -0.16607414186
    z: -0.761156320572
---
pose: 
  position: 
    x: 0.68696539446
    y: -0.262056822407
    z: 0.0230961677016
  orientation: 
    x: 0.682944578781
    y: 0.0203719737431
    z: 0.730020183364
    w: 0.0155633184266
twist: 
  linear: 
    x: 0.0449928699325
    y: -0.0150462328984
    z: 0.0105523327362
  angular: 
    x: -0.039702665116
    y: -0.05704283228
    z: -0.00284418398815
wrench: 
  force: 
    x: 3.13619422913
    y: 2.59539961815
    z: -7.99771690369
  torque: 
    x: -0.324564516544
    y: -0.329926609993
    z: -0.783072054386
---
pose: 
  position: 
    x: 0.687199060413
    y: -0.262567139213
    z: 0.0226981377762
  orientation: 
    x: 0.682965954825
    y: 0.0207535645305
    z: 0.729979377551
    w: 0.0160281770412
twist: 
  linear: 
    x: 0.0417258546571
    y: 0.00123690711143
    z: 0.00198717699802
  angular: 
    x: -0.0148816502641
    y: -0.0325145927275
    z: 0.0198625733002
wrench: 
  force: 
    x: 3.76693582535
    y: 2.44651389122
    z: -8.8282995224
  torque: 
    x: -0.340631425381
    y: -0.523252129555
    z: -0.69837886095
---
pose: 
  position: 
    x: 0.687486375299
    y: -0.262655077799
    z: 0.0228904637712
  orientation: 
    x: 0.682827339107
    y: 0.0203884246482
    z: 0.730122106277
    w: 0.0159011645197
twist: 
  linear: 
    x: 0.0413125311729
    y: -0.0364538318217
    z: -0.000567226611885
  angular: 
    x: -0.0441524881082
    y: -0.0360764737079
    z: -0.0371909942161
wrench: 
  force: 
    x: 3.75367021561
    y: 2.60738325119
    z: -8.1057062149
  torque: 
    x: -0.332438766956
    y: -0.296431899071
    z: -0.763532459736
---
pose: 
  position: 
    x: 0.688014239668
    y: -0.262880861369
    z: 0.0227136970717
  orientation: 
    x: 0.682669179433
    y: 0.0208556270049
    z: 0.730250792133
    w: 0.0161745127549
twist: 
  linear: 
    x: 0.0323476002075
    y: -0.00431177847274
    z: -0.00665476535088
  angular: 
    x: -0.0393768519638
    y: -0.0166472078044
    z: 0.00715285269341
wrench: 
  force: 
    x: 2.55824542046
    y: 2.54684042931
    z: -7.30727338791
  torque: 
    x: -0.411808878183
    y: -0.0978183746338
    z: -0.658281803131
---
pose: 
  position: 
    x: 0.688439289027
    y: -0.262971990229
    z: 0.0228405799726
  orientation: 
    x: 0.682561212396
    y: 0.0206190516971
    z: 0.730352753353
    w: 0.0164286856025
twist: 
  linear: 
    x: 0.0399826483388
    y: 0.00727070571597
    z: -0.00137124575562
  angular: 
    x: -0.0150014475153
    y: -0.0220749075574
    z: 0.024483979784
wrench: 
  force: 
    x: 2.7584965229
    y: 2.6729516983
    z: -7.72566175461
  torque: 
    x: -0.375651031733
    y: -0.216526269913
    z: -0.717225134373
---
pose: 
  position: 
    x: 0.68844603685
    y: -0.262714477262
    z: 0.0222431493346
  orientation: 
    x: 0.682983350536
    y: 0.0205163165828
    z: 0.729970749768
    w: 0.0159852471701
twist: 
  linear: 
    x: 0.036693520307
    y: -0.017906786438
    z: 0.00292475628266
  angular: 
    x: -0.0015255916418
    y: -0.026347756061
    z: -0.0201447920592
wrench: 
  force: 
    x: 3.47065734863
    y: 2.48170113564
    z: -8.27880382538
  torque: 
    x: -0.394244968891
    y: -0.331326752901
    z: -0.667157292366
---
pose: 
  position: 
    x: 0.688990150326
    y: -0.263361529803
    z: 0.022463184695
  orientation: 
    x: 0.682706179541
    y: 0.0202452090969
    z: 0.730231011236
    w: 0.0162810980642
twist: 
  linear: 
    x: 0.0460600398291
    y: -0.00234791588961
    z: 0.00664774089347
  angular: 
    x: 0.00211577909033
    y: -0.030044916827
    z: -0.000691283692628
wrench: 
  force: 
    x: 3.29508209229
    y: 2.47486257553
    z: -8.0897808075
  torque: 
    x: -0.354870736599
    y: -0.313333451748
    z: -0.695279717445
---
pose: 
  position: 
    x: 0.68913111716
    y: -0.262949745048
    z: 0.0225650168906
  orientation: 
    x: 0.682680847398
    y: 0.0211321049238
    z: 0.73022682636
    w: 0.0164035606565
twist: 
  linear: 
    x: 0.0320481388796
    y: -0.0157786505777
    z: -0.00688175073634
  angular: 
    x: -0.0429922904837
    y: -0.00201397278714
    z: -0.0232953385308
wrench: 
  force: 
    x: 2.41965436935
    y: 2.72021079063
    z: -7.23203849792
  torque: 
    x: -0.376787334681
    y: -0.129046499729
    z: -0.786662578583
---
pose: 
  position: 
    x: 0.689652033502
    y: -0.263898850899
    z: 0.0226025641528
  orientation: 
    x: 0.682439437979
    y: 0.0209198147782
    z: 0.730443617661
    w: 0.0170556811602
twist: 
  linear: 
    x: 0.0347134254127
    y: -0.0156939795721
    z: 0.000271664636564
  angular: 
    x: -0.039147847664
    y: -0.00661532920531
    z: -0.0006311448512
wrench: 
  force: 
    x: 2.15184164047
    y: 2.61502718925
    z: -7.23836421967
  torque: 
    x: -0.330432862043
    y: -0.146381437778
    z: -0.769429624081
---
pose: 
  position: 
    x: 0.689698964143
    y: -0.263249457687
    z: 0.0224324141533
  orientation: 
    x: 0.682711438532
    y: 0.0203581974837
    z: 0.730221612822
    w: 0.016341103401
twist: 
  linear: 
    x: 0.0313400853758
    y: -0.0222012273987
    z: 0.00708340811945
  angular: 
    x: 0.00782330630211
    y: -0.0349612782559
    z: -0.0288387277073
wrench: 
  force: 
    x: 2.57749080658
    y: 2.7127790451
    z: -8.19209384918
  torque: 
    x: -0.35676240921
    y: -0.442423075438
    z: -0.768196940422
---
pose: 
  position: 
    x: 0.690492004184
    y: -0.262963138999
    z: 0.0231310593359
  orientation: 
    x: 0.681859826263
    y: 0.0209297185373
    z: 0.731008745738
    w: 0.0159792948645
twist: 
  linear: 
    x: 0.0205271059814
    y: -0.0119361213939
    z: -0.00873373244774
  angular: 
    x: 0.0306414643906
    y: 0.00225897591497
    z: -0.0125569650543
wrench: 
  force: 
    x: 2.93062114716
    y: 2.73385858536
    z: -8.94429016113
  torque: 
    x: -0.332450032234
    y: -0.677953660488
    z: -0.791196763515
---
pose: 
  position: 
    x: 0.690476491893
    y: -0.263329288043
    z: 0.0224996601626
  orientation: 
    x: 0.682149877545
    y: 0.0203750660239
    z: 0.73076064009
    w: 0.0156616775671
twist: 
  linear: 
    x: 0.0328642361538
    y: -0.00201186288159
    z: -0.000754556749618
  angular: 
    x: 0.0330355350302
    y: -0.0104505562996
    z: 0.0100293949583
wrench: 
  force: 
    x: 2.42561793327
    y: 2.62873649597
    z: -7.94146299362
  torque: 
    x: -0.352936059237
    y: -0.393456369638
    z: -0.738006949425
---
pose: 
  position: 
    x: 0.691069785961
    y: -0.263016657798
    z: 0.022896875966
  orientation: 
    x: 0.682017365109
    y: 0.0205609497723
    z: 0.730870770382
    w: 0.0160461221215
twist: 
  linear: 
    x: 0.0264528719416
    y: -0.0013076853324
    z: -0.00438011313205
  angular: 
    x: -0.00101391777594
    y: 0.00832381907192
    z: 0.00319752663265
wrench: 
  force: 
    x: 2.55775427818
    y: 2.51348352432
    z: -7.83537912369
  torque: 
    x: -0.36686655879
    y: -0.335721284151
    z: -0.684298992157
---
pose: 
  position: 
    x: 0.691466392352
    y: -0.263140320102
    z: 0.0231531841652
  orientation: 
    x: 0.681716428058
    y: 0.0208452176949
    z: 0.731147316872
    w: 0.0158678809888
twist: 
  linear: 
    x: 0.0418017581424
    y: -0.0117344410799
    z: 0.0127353754634
  angular: 
    x: 0.00391109294693
    y: -0.0435203909339
    z: -0.0121061140047
wrench: 
  force: 
    x: 3.2093963623
    y: 2.46344017982
    z: -8.93297290802
  torque: 
    x: -0.329478472471
    y: -0.660906732082
    z: -0.715466976166
---
pose: 
  position: 
    x: 0.691190940113
    y: -0.263450772569
    z: 0.0223659822686
  orientation: 
    x: 0.682303070614
    y: 0.0202382804795
    z: 0.730620357912
    w: 0.0157106473083
twist: 
  linear: 
    x: 0.0239529974073
    y: -0.00285845249006
    z: -0.000890664607156
  angular: 
    x: 0.0369698676858
    y: -0.0299447193536
    z: 0.00457864356359
wrench: 
  force: 
    x: 3.85996603966
    y: 2.70848274231
    z: -9.82105731964
  torque: 
    x: -0.281583786011
    y: -0.885194182396
    z: -0.820721507072
---
pose: 
  position: 
    x: 0.692145557891
    y: -0.264027348883
    z: 0.0230658047009
  orientation: 
    x: 0.681613861516
    y: 0.0205760629225
    z: 0.731232551574
    w: 0.0166770783338
twist: 
  linear: 
    x: 0.0214483276294
    y: -0.00357134425293
    z: -0.009724040153
  angular: 
    x: 0.0408355628599
    y: -0.0120623623052
    z: 0.00420191897825
wrench: 
  force: 
    x: 3.56149816513
    y: 2.62532711029
    z: -9.36385726929
  torque: 
    x: -0.3182977736
    y: -0.785091340542
    z: -0.745728909969
---
pose: 
  position: 
    x: 0.692032902608
    y: -0.262901824362
    z: 0.0224255421385
  orientation: 
    x: 0.682146292399
    y: 0.0205347059628
    z: 0.730769816303
    w: 0.0151735690609
twist: 
  linear: 
    x: 0.0356254140706
    y: -0.0148408500509
    z: 0.00109199847457
  angular: 
    x: 0.0215624971894
    y: -0.0267893722993
    z: 0.000694054036391
wrench: 
  force: 
    x: 3.11224722862
    y: 3.20074319839
    z: -8.15668106079
  torque: 
    x: -0.512139856815
    y: -0.454105198383
    z: -0.686214625835
---
pose: 
  position: 
    x: 0.69239077453
    y: -0.264028383247
    z: 0.0226947248463
  orientation: 
    x: 0.681632628234
    y: 0.0204058611853
    z: 0.73123526436
    w: 0.0159859035925
twist: 
  linear: 
    x: 0.0259041336732
    y: -0.00236954364464
    z: -0.00540003406657
  angular: 
    x: 0.0435834908895
    y: -0.0182528716836
    z: 0.0323778272381
wrench: 
  force: 
    x: 2.57368922234
    y: 3.78080821037
    z: -7.41216802597
  torque: 
    x: -0.575635373592
    y: -0.26128450036
    z: -0.787558197975
---
pose: 
  position: 
    x: 0.692405515057
    y: -0.263827935921
    z: 0.0226982421196
  orientation: 
    x: 0.681634478229
    y: 0.0204929014099
    z: 0.731223835696
    w: 0.016315060238
twist: 
  linear: 
    x: 0.031955720497
    y: -0.0106538800068
    z: 0.0167267759947
  angular: 
    x: -0.00913199504397
    y: -0.055445896028
    z: -0.0106691146454
wrench: 
  force: 
    x: 2.2599105835
    y: 3.81225013733
    z: -7.15940999985
  torque: 
    x: -0.669268727303
    y: -0.113844066858
    z: -0.65977537632
---
pose: 
  position: 
    x: 0.692500472105
    y: -0.264162088187
    z: 0.0227192960587
  orientation: 
    x: 0.681523480737
    y: 0.0206827551153
    z: 0.731327754772
    w: 0.0160525370215
twist: 
  linear: 
    x: 0.0231954389565
    y: -0.00760251860399
    z: 0.00543663430572
  angular: 
    x: -0.0480911996633
    y: -0.0349415821697
    z: 0.00130257665722
wrench: 
  force: 
    x: 2.0883026123
    y: 4.04839754105
    z: -6.95342636108
  torque: 
    x: -0.65801680088
    y: -0.0719011500478
    z: -0.787559807301
---
pose: 
  position: 
    x: 0.693338205285
    y: -0.264450588451
    z: 0.023266225235
  orientation: 
    x: 0.681103208724
    y: 0.0207398297239
    z: 0.7317099703
    w: 0.016395056973
twist: 
  linear: 
    x: 0.0244765232096
    y: -0.0118503011358
    z: -0.00349351799596
  angular: 
    x: -0.068926111001
    y: 0.00320975837454
    z: 0.0159113967233
wrench: 
  force: 
    x: 2.20943188667
    y: 3.42935633659
    z: -7.4058432579
  torque: 
    x: -0.600738525391
    y: -0.226902782917
    z: -0.684133946896
---
pose: 
  position: 
    x: 0.693051453345
    y: -0.264183309605
    z: 0.0224487778278
  orientation: 
    x: 0.681523019539
    y: 0.0207308428731
    z: 0.731326092919
    w: 0.0160857641676
twist: 
  linear: 
    x: 0.0123625266224
    y: 0.00819771458857
    z: -0.0165893616444
  angular: 
    x: -0.0357353143793
    y: 0.0246671401091
    z: 0.0448252414876
wrench: 
  force: 
    x: 3.15031504631
    y: 3.39189004898
    z: -8.36579990387
  torque: 
    x: -0.506328582764
    y: -0.421257972717
    z: -0.781235814095
---
pose: 
  position: 
    x: 0.693055243144
    y: -0.263786990118
    z: 0.0224600715533
  orientation: 
    x: 0.681658424789
    y: 0.0215171454254
    z: 0.731177156118
    w: 0.0160863525368
twist: 
  linear: 
    x: 0.0109966946449
    y: 0.00366400134801
    z: -0.00457808951711
  angular: 
    x: -0.0525849416569
    y: -0.0215953354746
    z: 0.0307387950987
wrench: 
  force: 
    x: 3.63563203812
    y: 3.14118218422
    z: -8.662733078
  torque: 
    x: -0.462781965733
    y: -0.480689764023
    z: -0.759798109531
---
pose: 
  position: 
    x: 0.693586901589
    y: -0.264492301769
    z: 0.0224015659166
  orientation: 
    x: 0.681542869163
    y: 0.0217094677871
    z: 0.731261592694
    w: 0.0168671145381
twist: 
  linear: 
    x: 0.0335315684813
    y: 0.0123969133963
    z: 0.0191338081563
  angular: 
    x: -0.0743160074283
    y: -0.0556897929472
    z: 0.0627355740152
wrench: 
  force: 
    x: 3.03414940834
    y: 3.23805999756
    z: -8.33358860016
  torque: 
    x: -0.495073616505
    y: -0.495187669992
    z: -0.738415777683
---
pose: 
  position: 
    x: 0.693695155774
    y: -0.263608363769
    z: 0.0222913017199
  orientation: 
    x: 0.681240529524
    y: 0.0224276918569
    z: 0.731533923107
    w: 0.0163235693
twist: 
  linear: 
    x: 0.0289708346291
    y: -0.0063248809864
    z: 0.00603619023035
  angular: 
    x: -0.0576706660659
    y: -0.0383847230923
    z: 0.013202683939
wrench: 
  force: 
    x: 2.38690304756
    y: 3.00575041771
    z: -7.58961200714
  torque: 
    x: -0.379737436771
    y: -0.327452838421
    z: -0.837746739388
---
pose: 
  position: 
    x: 0.693971218997
    y: -0.263841919938
    z: 0.0225975501997
  orientation: 
    x: 0.680952872726
    y: 0.0221417170907
    z: 0.731810485985
    w: 0.0163199906056
twist: 
  linear: 
    x: 0.02059969867
    y: -0.00355260282435
    z: 0.0013692749589
  angular: 
    x: -0.0393575243719
    y: -0.0336472707649
    z: 0.0201994495576
wrench: 
  force: 
    x: 1.94184589386
    y: 3.44788432121
    z: -7.09224653244
  torque: 
    x: -0.355405122042
    y: -0.21083971858
    z: -0.977609813213
---
pose: 
  position: 
    x: 0.694247047331
    y: -0.263541113943
    z: 0.0227689481405
  orientation: 
    x: 0.680813779202
    y: 0.0224147234414
    z: 0.731937157446
    w: 0.0160678489889
twist: 
  linear: 
    x: 0.0120458663342
    y: 0.00428164188792
    z: -0.00568243926249
  angular: 
    x: -0.025279491978
    y: -0.0116279614942
    z: 0.0190956489539
wrench: 
  force: 
    x: 1.64632940292
    y: 3.40883350372
    z: -7.00448226929
  torque: 
    x: -0.358909338713
    y: -0.225204080343
    z: -0.980486512184
---
pose: 
  position: 
    x: 0.694523618037
    y: -0.264234539841
    z: 0.0232015199574
  orientation: 
    x: 0.680706159658
    y: 0.0223335509892
    z: 0.732029174213
    w: 0.0165416082862
twist: 
  linear: 
    x: 0.00554303013239
    y: 0.000491607302833
    z: -0.0133036750106
  angular: 
    x: -0.0400771854444
    y: 0.0179995447339
    z: 0.00579469771619
wrench: 
  force: 
    x: 1.63899278641
    y: 3.4011464119
    z: -6.94219732285
  torque: 
    x: -0.349396467209
    y: -0.268200278282
    z: -0.977117300034
---
pose: 
  position: 
    x: 0.694538413077
    y: -0.263763256783
    z: 0.0230831874362
  orientation: 
    x: 0.68070260784
    y: 0.0219923718062
    z: 0.732051800083
    w: 0.0161386881934
twist: 
  linear: 
    x: 0.0158089289238
    y: 0.0096140250178
    z: 0.00533552295648
  angular: 
    x: -0.0109509718138
    y: -0.00386075057358
    z: 0.0233581320326
wrench: 
  force: 
    x: 1.99050021172
    y: 3.14073181152
    z: -7.42672967911
  torque: 
    x: -0.399437844753
    y: -0.408991456032
    z: -0.868006944656
---
pose: 
  position: 
    x: 0.69454258646
    y: -0.26381463678
    z: 0.0228650558658
  orientation: 
    x: 0.68098710812
    y: 0.0219707008366
    z: 0.731794817102
    w: 0.0158174758219
twist: 
  linear: 
    x: 0.0189518823648
    y: -0.00116314578624
    z: 0.0252428200916
  angular: 
    x: -0.000759046486231
    y: -0.055359717103
    z: 0.00556741947636
wrench: 
  force: 
    x: 2.1765191555
    y: 3.29581141472
    z: -8.02441310883
  torque: 
    x: -0.401267230511
    y: -0.582734525204
    z: -0.893897712231
---
pose: 
  position: 
    x: 0.69439407892
    y: -0.263804921612
    z: 0.0225077133393
  orientation: 
    x: 0.681114741314
    y: 0.0223521537777
    z: 0.731655463856
    w: 0.0162287583217
twist: 
  linear: 
    x: 0.0026661036495
    y: -0.00676547395309
    z: -0.00453010030788
  angular: 
    x: 0.0341678411509
    y: 0.0160484713708
    z: -0.0214497511136
wrench: 
  force: 
    x: 2.37656378746
    y: 3.17249059677
    z: -8.43767356873
  torque: 
    x: -0.407384812832
    y: -0.682552576065
    z: -0.84979134798
---
pose: 
  position: 
    x: 0.694245435898
    y: -0.263972252583
    z: 0.0227719160404
  orientation: 
    x: 0.680968653845
    y: 0.0228452426076
    z: 0.731763415453
    w: 0.0167955700882
twist: 
  linear: 
    x: 0.00237528962358
    y: 0.00861872586977
    z: -0.000759392228607
  angular: 
    x: 0.00195455610595
    y: -0.00394857156401
    z: -0.000586962356158
wrench: 
  force: 
    x: 2.70555257797
    y: 2.90418982506
    z: -8.30187702179
  torque: 
    x: -0.448185920715
    y: -0.601885318756
    z: -0.739546597004
---
pose: 
  position: 
    x: 0.694534160326
    y: -0.263636210805
    z: 0.0228576634713
  orientation: 
    x: 0.680961359712
    y: 0.0228389193908
    z: 0.73178341369
    w: 0.0162186863987
twist: 
  linear: 
    x: -0.0123356024543
    y: -0.00267759709342
    z: -0.0232652704037
  angular: 
    x: -0.0181823342373
    y: 0.042560685445
    z: 0.00196743741831
wrench: 
  force: 
    x: 2.89310979843
    y: 3.29473042488
    z: -7.9567732811
  torque: 
    x: -0.460395216942
    y: -0.468566328287
    z: -0.829089343548
---
pose: 
  position: 
    x: 0.694106542825
    y: -0.263530805619
    z: 0.022553708169
  orientation: 
    x: 0.680962532649
    y: 0.0221479658072
    z: 0.731813288536
    w: 0.0157736318552
twist: 
  linear: 
    x: 0.00485439460213
    y: 0.00515508183262
    z: 0.00356391858106
  angular: 
    x: -0.00167826138552
    y: 2.08943115045e-05
    z: 0.00231174325331
wrench: 
  force: 
    x: 3.02507948875
    y: 2.91508603096
    z: -7.62381744385
  torque: 
    x: -0.443905830383
    y: -0.338838368654
    z: -0.722882270813
---
pose: 
  position: 
    x: 0.693966853999
    y: -0.263727511553
    z: 0.021754398511
  orientation: 
    x: 0.681651976944
    y: 0.022916503754
    z: 0.731136571484
    w: 0.0162705261941
twist: 
  linear: 
    x: 0.00313336758802
    y: 0.0103217368246
    z: 0.00318795518377
  angular: 
    x: 0.00132471209311
    y: -0.00385132564502
    z: 0.0271312032316
wrench: 
  force: 
    x: 3.18192958832
    y: 3.13235282898
    z: -7.54319286346
  torque: 
    x: -0.467950254679
    y: -0.302065938711
    z: -0.793022751808
---
pose: 
  position: 
    x: 0.69453269736
    y: -0.263976383617
    z: 0.0226040580323
  orientation: 
    x: 0.681121099432
    y: 0.0224923655157
    z: 0.731641896688
    w: 0.0163791456908
twist: 
  linear: 
    x: 4.30334589441e-05
    y: -0.0269645528102
    z: -0.00517418821895
  angular: 
    x: -0.0202049683221
    y: 0.00133898546417
    z: -0.033125533754
wrench: 
  force: 
    x: 3.07658672333
    y: 3.13481879234
    z: -7.60308980942
  torque: 
    x: -0.480597168207
    y: -0.333163142204
    z: -0.784629106522
---
pose: 
  position: 
    x: 0.694669115982
    y: -0.264124637385
    z: 0.0228241213245
  orientation: 
    x: 0.68097543967
    y: 0.0224594213512
    z: 0.731778793574
    w: 0.0163652752443
twist: 
  linear: 
    x: 0.0151815477586
    y: -0.00467122440937
    z: 0.0104050763993
  angular: 
    x: -0.00243893150981
    y: -0.0352875563882
    z: -0.00498832908501
wrench: 
  force: 
    x: 2.98102712631
    y: 3.27845931053
    z: -7.51482057571
  torque: 
    x: -0.463536828756
    y: -0.32090318203
    z: -0.822838366032
---
pose: 
  position: 
    x: 0.694510268675
    y: -0.263994001944
    z: 0.0229186046646
  orientation: 
    x: 0.680705934148
    y: 0.0223248136457
    z: 0.732035757446
    w: 0.0162691036082
twist: 
  linear: 
    x: 0.0099836285359
    y: 0.00384297772885
    z: 0.00335736037201
  angular: 
    x: -0.000309249640424
    y: -0.0190071063961
    z: 0.00469821270986
wrench: 
  force: 
    x: 2.78515625
    y: 3.04005074501
    z: -7.25050878525
  torque: 
    x: -0.502034783363
    y: -0.245090082288
    z: -0.732409179211
---
pose: 
  position: 
    x: 0.695093117238
    y: -0.263822825829
    z: 0.0232151549465
  orientation: 
    x: 0.68054151275
    y: 0.0222224279786
    z: 0.732195029044
    w: 0.0161199429757
twist: 
  linear: 
    x: 0.00280407343559
    y: 0.00867569389183
    z: -0.00185446879722
  angular: 
    x: 0.012713415187
    y: -0.00550478584029
    z: 0.0117442173532
wrench: 
  force: 
    x: 2.79577279091
    y: 3.19981765747
    z: -7.60923433304
  torque: 
    x: -0.523671329021
    y: -0.387078762054
    z: -0.762806594372
---
pose: 
  position: 
    x: 0.694266917714
    y: -0.263857865427
    z: 0.0219538943428
  orientation: 
    x: 0.681528415084
    y: 0.022243723713
    z: 0.731271159001
    w: 0.0163318156586
twist: 
  linear: 
    x: 0.00208439726159
    y: -5.04624297153e-06
    z: 0.00274604600236
  angular: 
    x: 0.00960882579525
    y: 0.00327020511281
    z: -0.00828138751678
wrench: 
  force: 
    x: 2.75473952293
    y: 3.22863388062
    z: -7.38519954681
  torque: 
    x: -0.558822035789
    y: -0.323841482401
    z: -0.713605642319
---
pose: 
  position: 
    x: 0.694687151052
    y: -0.263699259554
    z: 0.0222408587346
  orientation: 
    x: 0.681387724702
    y: 0.0223654547462
    z: 0.73140771461
    w: 0.0159157176752
twist: 
  linear: 
    x: -0.00188478244515
    y: -0.0102347317667
    z: -0.00937527766212
  angular: 
    x: -0.00997796806991
    y: 0.0355144299204
    z: -0.0137267241933
wrench: 
  force: 
    x: 2.85435271263
    y: 3.47223877907
    z: -7.57635974884
  torque: 
    x: -0.513805270195
    y: -0.405621409416
    z: -0.835777461529
---
pose: 
  position: 
    x: 0.694814475628
    y: -0.263825220167
    z: 0.0226602812323
  orientation: 
    x: 0.680974183334
    y: 0.0223842274201
    z: 0.731784680712
    w: 0.0162569699069
twist: 
  linear: 
    x: 0.0124476659953
    y: 0.013653251217
    z: 0.00614684782881
  angular: 
    x: -0.000337273578412
    y: -0.0281005446056
    z: 0.012594174039
wrench: 
  force: 
    x: 2.83597373962
    y: 3.40732097626
    z: -7.784116745
  torque: 
    x: -0.530277848244
    y: -0.47569796443
    z: -0.784111738205
---
pose: 
  position: 
    x: 0.69496529343
    y: -0.263593070775
    z: 0.023018847003
  orientation: 
    x: 0.680824514288
    y: 0.0226561403872
    z: 0.731915335606
    w: 0.0162671924983
twist: 
  linear: 
    x: 0.00635031224729
    y: 0.00326036199088
    z: 0.00540844826341
  angular: 
    x: -0.0213731138942
    y: -0.0173395005631
    z: 0.00340628225243
wrench: 
  force: 
    x: 2.68039369583
    y: 3.14351630211
    z: -7.68386268616
  torque: 
    x: -0.447336286306
    y: -0.474382251501
    z: -0.791585206985
---
pose: 
  position: 
    x: 0.694563330883
    y: -0.263342224852
    z: 0.0223162276985
  orientation: 
    x: 0.681498915808
    y: 0.0229851640278
    z: 0.731282878677
    w: 0.0160081648049
twist: 
  linear: 
    x: 0.00722640520426
    y: -0.00531030094292
    z: 0.0125011162357
  angular: 
    x: 0.010527947583
    y: -0.0131404051329
    z: -0.0188929510458
wrench: 
  force: 
    x: 2.47754240036
    y: 2.89191102982
    z: -7.73561954498
  torque: 
    x: -0.435021847486
    y: -0.501441955566
    z: -0.750129044056
---
pose: 
  position: 
    x: 0.695114523328
    y: -0.26343091793
    z: 0.0230018149231
  orientation: 
    x: 0.680826193824
    y: 0.0222860803945
    z: 0.731934356594
    w: 0.0158468312586
twist: 
  linear: 
    x: -0.00169102263233
    y: 0.00112403405578
    z: -0.0119382516701
  angular: 
    x: -0.000248467714419
    y: 0.0247455298685
    z: 0.00983476346608
wrench: 
  force: 
    x: 2.47737240791
    y: 3.27743387222
    z: -7.58338451385
  torque: 
    x: -0.479611933231
    y: -0.433929145336
    z: -0.810417413712
---
pose: 
  position: 
    x: 0.694948247063
    y: -0.263669710929
    z: 0.0226060577887
  orientation: 
    x: 0.68081902717
    y: 0.0225191229763
    z: 0.731921432211
    w: 0.0164121422903
twist: 
  linear: 
    x: 0.0123940465957
    y: -0.00876524471794
    z: 0.00454818279513
  angular: 
    x: -0.0182432869341
    y: -0.0288688996917
    z: -0.0199923199356
wrench: 
  force: 
    x: 2.22458100319
    y: 3.21862530708
    z: -7.21765518188
  torque: 
    x: -0.387041479349
    y: -0.363408952951
    z: -0.911049067974
---
pose: 
  position: 
    x: 0.694962417082
    y: -0.263829623255
    z: 0.0227709525639
  orientation: 
    x: 0.68096079508
    y: 0.0227938909496
    z: 0.731774942284
    w: 0.0166813652119
twist: 
  linear: 
    x: 0.0017829969638
    y: 0.00265244145701
    z: -0.00273461438651
  angular: 
    x: -0.0152756137147
    y: -0.00627724366
    z: 0.0110955755907
wrench: 
  force: 
    x: 2.27577757835
    y: 3.49756193161
    z: -7.13588905334
  torque: 
    x: -0.455505132675
    y: -0.334504365921
    z: -0.899000644684
---
pose: 
  position: 
    x: 0.694831968646
    y: -0.263842005173
    z: 0.0225737576293
  orientation: 
    x: 0.681261411442
    y: 0.0227048908627
    z: 0.73150089229
    w: 0.0165475614534
twist: 
  linear: 
    x: -0.00693333468718
    y: -0.0264751523964
    z: -0.00491378032552
  angular: 
    x: -0.0221670911064
    y: 0.0167864932248
    z: -0.0354094081211
wrench: 
  force: 
    x: 2.45544743538
    y: 3.20666003227
    z: -7.40067815781
  torque: 
    x: -0.436359256506
    y: -0.381604909897
    z: -0.850274443626
---
pose: 
  position: 
    x: 0.694817273235
    y: -0.263762585965
    z: 0.0225267511281
  orientation: 
    x: 0.680969528869
    y: 0.0224256401853
    z: 0.73178090859
    w: 0.0165618005692
twist: 
  linear: 
    x: -0.00313091146843
    y: -0.00103619820686
    z: -0.00183703387974
  angular: 
    x: -0.0163099238641
    y: 0.00463804427009
    z: 0.00687400608949
wrench: 
  force: 
    x: 2.35860610008
    y: 3.36944556236
    z: -7.41282558441
  torque: 
    x: -0.506186306477
    y: -0.420951515436
    z: -0.799377799034
---
pose: 
  position: 
    x: 0.694964266256
    y: -0.263668469652
    z: 0.022890026323
  orientation: 
    x: 0.680822922747
    y: 0.0223980839852
    z: 0.731924831144
    w: 0.0162639248335
twist: 
  linear: 
    x: 0.00472623931894
    y: 0.0108371671966
    z: 0.00602124017988
  angular: 
    x: 0.00797414042921
    y: -0.00359487040098
    z: 0.0129671017491
wrench: 
  force: 
    x: 2.47399616241
    y: 3.17272043228
    z: -7.42923736572
  torque: 
    x: -0.516666769981
    y: -0.406756073236
    z: -0.768852293491
---
pose: 
  position: 
    x: 0.69511071522
    y: -0.263839322351
    z: 0.0231285192607
  orientation: 
    x: 0.680833384884
    y: 0.0224124436716
    z: 0.731914522511
    w: 0.0162700993615
twist: 
  linear: 
    x: 0.00195886061456
    y: 0.00802819163023
    z: 0.0014468702534
  angular: 
    x: 0.0177118861826
    y: -0.00114762110378
    z: 0.0197105582371
wrench: 
  force: 
    x: 2.53029680252
    y: 3.31387352943
    z: -7.49901199341
  torque: 
    x: -0.491956561804
    y: -0.428266495466
    z: -0.806636750698
---
pose: 
  position: 
    x: 0.694830730801
    y: -0.26419258636
    z: 0.0225961927521
  orientation: 
    x: 0.681257163977
    y: 0.022113442692
    z: 0.731530638378
    w: 0.016204854113
twist: 
  linear: 
    x: -0.00258073008338
    y: 0.00518183090348
    z: -0.00311406795446
  angular: 
    x: 0.00446073320681
    y: 0.00517473098677
    z: 0.0174137071483
wrench: 
  force: 
    x: 2.50283718109
    y: 3.20737957954
    z: -7.58918809891
  torque: 
    x: -0.462120592594
    y: -0.462197631598
    z: -0.814576745033
---
pose: 
  position: 
    x: 0.694545648175
    y: -0.263590452953
    z: 0.0222780443022
  orientation: 
    x: 0.68136442438
    y: 0.0228367587318
    z: 0.731409459441
    w: 0.0161618774094
twist: 
  linear: 
    x: -0.0025453592791
    y: -0.00226231379026
    z: -0.00158028715958
  angular: 
    x: -0.00252125154097
    y: 0.00266233109813
    z: -0.000957687811994
wrench: 
  force: 
    x: 2.62278175354
    y: 3.45859694481
    z: -7.49218940735
  torque: 
    x: -0.527383923531
    y: -0.445944845676
    z: -0.81260830164
---
pose: 
  position: 
    x: 0.694566180694
    y: -0.263279489948
    z: 0.0221827564683
  orientation: 
    x: 0.681507272976
    y: 0.0226348637089
    z: 0.731288549513
    w: 0.0158920476134
twist: 
  linear: 
    x: -0.0032111887015
    y: 0.0122066428257
    z: -0.00594975858127
  angular: 
    x: 0.0142764122678
    y: 0.00586687028504
    z: -0.00601360593518
wrench: 
  force: 
    x: 2.67185425758
    y: 3.58892965317
    z: -7.24625205994
  torque: 
    x: -0.490842700005
    y: -0.351821511984
    z: -0.888275682926
---
pose: 
  position: 
    x: 0.695094540339
    y: -0.264105585903
    z: 0.0227198334852
  orientation: 
    x: 0.680990747489
    y: 0.0224448254122
    z: 0.731760120286
    w: 0.0165818577146
twist: 
  linear: 
    x: -0.00546686407137
    y: -0.00233302967105
    z: -0.00980028899517
  angular: 
    x: 0.00178326705823
    y: 0.0234975636017
    z: -0.00384191715858
wrench: 
  force: 
    x: 2.3343501091
    y: 3.07510471344
    z: -6.99478530884
  torque: 
    x: -0.492527574301
    y: -0.305986464024
    z: -0.747135996819
---
pose: 
  position: 
    x: 0.695097709819
    y: -0.264323741042
    z: 0.0229844084458
  orientation: 
    x: 0.680847605782
    y: 0.022015004904
    z: 0.731910160295
    w: 0.0164132421251
twist: 
  linear: 
    x: 0.000763516977603
    y: -0.0121289016048
    z: 0.00178339430905
  angular: 
    x: -0.0020483882205
    y: -0.00999864021456
    z: -0.0215069777076
wrench: 
  force: 
    x: 2.39967775345
    y: 3.4238243103
    z: -7.10831928253
  torque: 
    x: -0.55007070303
    y: -0.310260772705
    z: -0.812403857708
---
pose: 
  position: 
    x: 0.69510423458
    y: -0.263673454769
    z: 0.0228587673418
  orientation: 
    x: 0.680822734008
    y: 0.0224113261443
    z: 0.731924438332
    w: 0.0162712596677
twist: 
  linear: 
    x: 0.00656990027309
    y: -0.0165107061214
    z: 0.0113237780115
  angular: 
    x: -0.0220113281281
    y: -0.0215969141013
    z: -0.0193017129057
wrench: 
  force: 
    x: 2.42255067825
    y: 3.51972723007
    z: -7.41563034058
  torque: 
    x: -0.568348228931
    y: -0.424002349377
    z: -0.78241610527
---
pose: 
  position: 
    x: 0.695005745993
    y: -0.263321655063
    z: 0.0228509775454
  orientation: 
    x: 0.681088749025
    y: 0.0221833785721
    z: 0.731691022893
    w: 0.0159455537737
twist: 
  linear: 
    x: -5.37849687737e-05
    y: 0.0156551534962
    z: -0.00951589632932
  angular: 
    x: -0.0171084525123
    y: 0.0141235563751
    z: 0.0276004736061
wrench: 
  force: 
    x: 2.50942182541
    y: 3.35369133949
    z: -7.49227428436
  torque: 
    x: -0.551964342594
    y: -0.436534076929
    z: -0.785252571106
---
pose: 
  position: 
    x: 0.694697163619
    y: -0.263537469937
    z: 0.0225019657018
  orientation: 
    x: 0.681236673278
    y: 0.0223661723448
    z: 0.731548395779
    w: 0.015915211225
twist: 
  linear: 
    x: -0.00527248213649
    y: 0.00525708395097
    z: -0.000723669377972
  angular: 
    x: 0.0258344798778
    y: 0.0116868278525
    z: 0.0124888179403
wrench: 
  force: 
    x: 2.45306563377
    y: 3.42254066467
    z: -7.05553388596
  torque: 
    x: -0.488210767508
    y: -0.324306458235
    z: -0.842302680016
---
pose: 
  position: 
    x: 0.695087387579
    y: -0.263846432097
    z: 0.022949383184
  orientation: 
    x: 0.680693943807
    y: 0.0223906768841
    z: 0.73204447529
    w: 0.016287990955
twist: 
  linear: 
    x: -0.00824293449712
    y: 0.00468905878443
    z: -0.00670860134447
  angular: 
    x: 0.030412892926
    y: 0.00210539510454
    z: 0.00752245331384
wrench: 
  force: 
    x: 2.568785429
    y: 3.49778437614
    z: -7.36925792694
  torque: 
    x: -0.480676293373
    y: -0.393403500319
    z: -0.881834685802
---
pose: 
  position: 
    x: 0.694422705141
    y: -0.263235844275
    z: 0.0218148959656
  orientation: 
    x: 0.681672260832
    y: 0.0223090511546
    z: 0.731146836476
    w: 0.0157967895255
twist: 
  linear: 
    x: 0.00661088242777
    y: -0.000536606562654
    z: 0.00779076480872
  angular: 
    x: -0.00145510888227
    y: -0.0210275592525
    z: 0.00253194984189
wrench: 
  force: 
    x: 2.68928718567
    y: 3.44060373306
    z: -7.6590719223
  torque: 
    x: -0.514085948467
    y: -0.48455825448
    z: -0.85975253582
---
pose: 
  position: 
    x: 0.69469735427
    y: -0.263807808187
    z: 0.0226239326947
  orientation: 
    x: 0.681245091553
    y: 0.0226616737077
    z: 0.731518369325
    w: 0.016506032842
twist: 
  linear: 
    x: 0.00476918697745
    y: 0.00460088250937
    z: 0.00224482268483
  angular: 
    x: -0.0269968292096
    y: -0.00109220915856
    z: -0.00184710220479
wrench: 
  force: 
    x: 2.56101226807
    y: 3.39882349968
    z: -7.67422246933
  torque: 
    x: -0.536756277084
    y: -0.497456550598
    z: -0.7665168643
---
pose: 
  position: 
    x: 0.694972769584
    y: -0.263587164369
    z: 0.0229140000042
  orientation: 
    x: 0.680964328716
    y: 0.0226685623208
    z: 0.731785096148
    w: 0.0162570709287
twist: 
  linear: 
    x: 0.00680356829202
    y: -0.0052816433371
    z: 0.0148086474241
  angular: 
    x: -0.0440162978844
    y: -0.0145139419319
    z: 0.00207311216257
wrench: 
  force: 
    x: 2.47313165665
    y: 3.50548529625
    z: -7.35875368118
  torque: 
    x: -0.480743288994
    y: -0.401136636734
    z: -0.858710169792
---
pose: 
  position: 
    x: 0.694532213468
    y: -0.263620272929
    z: 0.0221171547938
  orientation: 
    x: 0.68138125349
    y: 0.0228622748552
    z: 0.731392142318
    w: 0.0161999362874
twist: 
  linear: 
    x: -0.00170517572223
    y: 0.000370637361762
    z: -0.00166525374775
  angular: 
    x: 0.000863355228097
    y: 0.0148981439434
    z: 0.010565364666
wrench: 
  force: 
    x: 2.53213691711
    y: 3.22773694992
    z: -7.69794225693
  torque: 
    x: -0.465108722448
    y: -0.481012403965
    z: -0.820708453655
---
pose: 
  position: 
    x: 0.694725963533
    y: -0.263145248086
    z: 0.0224305707364
  orientation: 
    x: 0.681512235856
    y: 0.0226961584393
    z: 0.731281437779
    w: 0.0159190304324
twist: 
  linear: 
    x: 5.22981583837e-05
    y: 0.00171354941756
    z: -0.00418195939427
  angular: 
    x: 0.0180406224379
    y: 0.00329216115188
    z: -0.000992397379141
wrench: 
  force: 
    x: 2.62759804726
    y: 3.2590444088
    z: -7.75272893906
  torque: 
    x: -0.553778767586
    y: -0.511264026165
    z: -0.762492060661
---
pose: 
  position: 
    x: 0.695097989411
    y: -0.264063920345
    z: 0.0230010617963
  orientation: 
    x: 0.680971913918
    y: 0.022892448977
    z: 0.731765014358
    w: 0.0165273106125
twist: 
  linear: 
    x: 0.00331771300588
    y: 0.000567881741604
    z: -0.00219784453082
  angular: 
    x: -0.00611971248825
    y: 0.000636088849909
    z: 0.00533082492599
wrench: 
  force: 
    x: 2.65476965904
    y: 3.41160225868
    z: -7.5444483757
  torque: 
    x: -0.550026535988
    y: -0.454942405224
    z: -0.765885710716
---
pose: 
  position: 
    x: 0.694962417082
    y: -0.263829623255
    z: 0.0227709525639
  orientation: 
    x: 0.680965153235
    y: 0.0226633179344
    z: 0.731778127443
    w: 0.0165410488184
twist: 
  linear: 
    x: 0.00707462755639
    y: -0.0148935733189
    z: 0.00889647935606
  angular: 
    x: -0.0268171002421
    y: -0.0216121601317
    z: -0.00793180476435
wrench: 
  force: 
    x: 2.60788702965
    y: 3.27996754646
    z: -7.56757640839
  torque: 
    x: -0.567518651485
    y: -0.448961436749
    z: -0.71882134676
---
pose: 
  position: 
    x: 0.695243289502
    y: -0.263309579137
    z: 0.0231755845871
  orientation: 
    x: 0.680551868494
    y: 0.0223127817688
    z: 0.732187429497
    w: 0.0159016396789
twist: 
  linear: 
    x: 0.000582139145609
    y: -0.0114564450326
    z: 0.00039867857569
  angular: 
    x: 0.00398887737559
    y: -0.0180763558527
    z: -0.0169229546302
wrench: 
  force: 
    x: 2.3519051075
    y: 3.37341046333
    z: -7.3458032608
  torque: 
    x: -0.493495255709
    y: -0.39725330472
    z: -0.808818519115
---
pose: 
  position: 
    x: 0.694950924059
    y: -0.263973570636
    z: 0.0228804821898
  orientation: 
    x: 0.680819820846
    y: 0.0226125256361
    z: 0.73191530089
    w: 0.0165238479484
twist: 
  linear: 
    x: 7.86228113279e-05
    y: 0.0138934388198
    z: 0.00153612066918
  angular: 
    x: 0.0162711000242
    y: -0.0144560355008
    z: 0.0123582782018
wrench: 
  force: 
    x: 2.5415892601
    y: 3.26629376411
    z: -7.33317375183
  torque: 
    x: -0.563532352448
    y: -0.395381450653
    z: -0.713651776314
---
pose: 
  position: 
    x: 0.694960640707
    y: -0.263455515643
    z: 0.0226547691708
  orientation: 
    x: 0.680937564061
    y: 0.0227218250029
    z: 0.731812619468
    w: 0.0160637015175
twist: 
  linear: 
    x: 0.00668532381738
    y: 0.00433562152739
    z: 0.00694690958725
  angular: 
    x: -0.00814133482634
    y: -0.0101365741407
    z: 0.00417698078287
wrench: 
  force: 
    x: 2.55932235718
    y: 3.28083181381
    z: -7.4150967598
  torque: 
    x: -0.506016552448
    y: -0.404810428619
    z: -0.79702103138
---
pose: 
  position: 
    x: 0.694941859901
    y: -0.263600185858
    z: 0.0228397167367
  orientation: 
    x: 0.680689408975
    y: 0.0225038023826
    z: 0.732048396839
    w: 0.0161447227631
twist: 
  linear: 
    x: -0.0121979825126
    y: -0.0105073678089
    z: -0.0184964054919
  angular: 
    x: -0.0278980621815
    y: 0.0454393082954
    z: -0.0276844479405
wrench: 
  force: 
    x: 2.71051764488
    y: 3.34892964363
    z: -7.58415555954
  torque: 
    x: -0.501291632652
    y: -0.44736507535
    z: -0.809937059879
---
pose: 
  position: 
    x: 0.694828361969
    y: -0.263714897242
    z: 0.0227031625115
  orientation: 
    x: 0.681103321442
    y: 0.0224940166983
    z: 0.731665124275
    w: 0.0160757784983
