pose: 
  position: 
    x: 0.688787527832
    y: -0.245325153181
    z: 0.0259285678986
  orientation: 
    x: 0.695914255439
    y: 0.0230389460474
    z: 0.717722798915
    w: -0.00682202022241
twist: 
  linear: 
    x: 0.0348127253418
    y: -0.00253219866578
    z: 0.0105413149407
  angular: 
    x: -0.00223405966671
    y: -0.0370855142264
    z: -0.00586919387778
wrench: 
  force: 
    x: 3.15309119225
    y: 2.39458394051
    z: -8.03413963318
  torque: 
    x: -0.143786624074
    y: -0.75047492981
    z: -0.648890554905
---
pose: 
  position: 
    x: 0.68892256528
    y: -0.245493323483
    z: 0.0256331778429
  orientation: 
    x: 0.696049577198
    y: 0.023440518087
    z: 0.717582551574
    w: -0.00638826036764
twist: 
  linear: 
    x: 0.0299195868648
    y: 0.000671921795587
    z: 0.00890136912812
  angular: 
    x: 0.00449582999908
    y: -0.0324701494058
    z: 0.00511712149428
wrench: 
  force: 
    x: 3.05557322502
    y: 2.44817948341
    z: -7.83631753922
  torque: 
    x: -0.162703603506
    y: -0.683846592903
    z: -0.656596004963
---
pose: 
  position: 
    x: 0.689071930747
    y: -0.245716864401
    z: 0.025140826884
  orientation: 
    x: 0.696474625123
    y: 0.0230844952695
    z: 0.71718024954
    w: -0.00653393501541
twist: 
  linear: 
    x: 0.0352230455568
    y: -0.00821341349576
    z: -0.00238686588617
  angular: 
    x: -0.00591177059732
    y: -0.020331767353
    z: -0.00991979812093
wrench: 
  force: 
    x: 3.05723929405
    y: 2.41388273239
    z: -8.18126678467
  torque: 
    x: -0.13369679451
    y: -0.740840256214
    z: -0.691440105438
---
pose: 
  position: 
    x: 0.688924753402
    y: -0.245429733648
    z: 0.0244159247306
  orientation: 
    x: 0.696727449433
    y: 0.0231894981612
    z: 0.716929499559
    w: -0.00672317213035
twist: 
  linear: 
    x: 0.0366524617738
    y: -0.0118468324417
    z: -0.0113083866799
  angular: 
    x: -0.0323508901975
    y: -0.00721957172814
    z: -0.0257813103266
wrench: 
  force: 
    x: 2.97312378883
    y: 2.61966347694
    z: -7.47979736328
  torque: 
    x: -0.14164891839
    y: -0.556000113487
    z: -0.785332083702
---
pose: 
  position: 
    x: 0.690316361327
    y: -0.246042587593
    z: 0.0259800234887
  orientation: 
    x: 0.6955303723
    y: 0.0231536497832
    z: 0.718097507586
    w: -0.00611386204172
twist: 
  linear: 
    x: 0.0319703104888
    y: -0.00878226551018
    z: -0.00349690139259
  angular: 
    x: -0.0148249851111
    y: -0.0267479674035
    z: -0.0126397772185
wrench: 
  force: 
    x: 2.57729125023
    y: 2.60712194443
    z: -7.15805435181
  torque: 
    x: -0.179557397962
    y: -0.508164525032
    z: -0.721260786057
---
pose: 
  position: 
    x: 0.689626608405
    y: -0.24580153672
    z: 0.0249445769632
  orientation: 
    x: 0.696202411544
    y: 0.0227224922157
    z: 0.717455092417
    w: -0.00663934279661
twist: 
  linear: 
    x: 0.0331328330932
    y: -0.00346725962356
    z: 0.00268560371492
  angular: 
    x: -0.00969060459469
    y: -0.0323910357787
    z: 0.00648819226498
wrench: 
  force: 
    x: 2.43526506424
    y: 2.48394298553
    z: -6.88324069977
  torque: 
    x: -0.150981888175
    y: -0.436136394739
    z: -0.702551484108
---
pose: 
  position: 
    x: 0.690725210938
    y: -0.245136390688
    z: 0.0254320166837
  orientation: 
    x: 0.695749483771
    y: 0.0235290274484
    z: 0.717865844207
    w: -0.00690437691965
twist: 
  linear: 
    x: 0.0364004505972
    y: -0.00319139232452
    z: 0.00214465727529
  angular: 
    x: -0.0147202200846
    y: -0.0433663606181
    z: 0.00607748768686
wrench: 
  force: 
    x: 2.43072199821
    y: 2.59811782837
    z: -7.23312997818
  torque: 
    x: -0.168259978294
    y: -0.527046382427
    z: -0.731369256973
---
pose: 
  position: 
    x: 0.69086838456
    y: -0.246038173478
    z: 0.0250679028164
  orientation: 
    x: 0.695795720651
    y: 0.0234789094013
    z: 0.717832382534
    w: -0.00580745405995
twist: 
  linear: 
    x: 0.0355121110218
    y: -0.0178153624814
    z: -0.000217900750293
  angular: 
    x: -0.0394942827623
    y: -0.0297889303655
    z: -0.0265020133215
wrench: 
  force: 
    x: 2.681650877
    y: 2.82953643799
    z: -7.30601358414
  torque: 
    x: -0.163423880935
    y: -0.509308099747
    z: -0.804277956486
---
pose: 
  position: 
    x: 0.691004775973
    y: -0.246040009059
    z: 0.0248925455364
  orientation: 
    x: 0.695795720636
    y: 0.0234874943183
    z: 0.717832189376
    w: -0.00579660685022
twist: 
  linear: 
    x: 0.0279486410031
    y: -0.00909332897001
    z: -0.0191879652855
  angular: 
    x: -1.55919409061e-05
    y: 0.000744045066266
    z: -0.00662489888359
wrench: 
  force: 
    x: 2.69128704071
    y: 2.59272503853
    z: -7.01265144348
  torque: 
    x: -0.108080998063
    y: -0.354844927788
    z: -0.813855826855
---
pose: 
  position: 
    x: 0.691293138179
    y: -0.246029959325
    z: 0.0247583376855
  orientation: 
    x: 0.696082784123
    y: 0.0231422061728
    z: 0.717561585936
    w: -0.00621017959985
twist: 
  linear: 
    x: 0.0334007464535
    y: 0.00412493022283
    z: -0.00909441020651
  angular: 
    x: 0.012728296701
    y: -0.001622957846
    z: 0.00680279425339
wrench: 
  force: 
    x: 2.65856003761
    y: 2.76979970932
    z: -6.75044965744
  torque: 
    x: -0.166080594063
    y: -0.251067310572
    z: -0.761641740799
---
pose: 
  position: 
    x: 0.691013096157
    y: -0.246017434988
    z: 0.0243300673323
  orientation: 
    x: 0.696348663007
    y: 0.0233976598966
    z: 0.717297444182
    w: -0.00595530098369
twist: 
  linear: 
    x: 0.0341852686864
    y: 0.00406066936837
    z: -0.00349449599475
  angular: 
    x: -0.00410784433207
    y: 0.00161303160253
    z: 0.0112093514402
wrench: 
  force: 
    x: 2.95147323608
    y: 2.6678416729
    z: -6.95911931992
  torque: 
    x: -0.138852134347
    y: -0.253276646137
    z: -0.758497476578
---
pose: 
  position: 
    x: 0.692551420788
    y: -0.246110602417
    z: 0.025656919845
  orientation: 
    x: 0.695105878563
    y: 0.0227893785848
    z: 0.71851836602
    w: -0.00631026959452
twist: 
  linear: 
    x: 0.0375219688724
    y: -0.00677716618595
    z: 0.00408617093477
  angular: 
    x: -0.021082220357
    y: -0.0226925462796
    z: -0.0148822104533
wrench: 
  force: 
    x: 3.3421049118
    y: 2.60585165024
    z: -7.76906061172
  torque: 
    x: -0.146077260375
    y: -0.455357551575
    z: -0.740981459618
---
pose: 
  position: 
    x: 0.692541454354
    y: -0.245785439184
    z: 0.0250452354643
  orientation: 
    x: 0.695506150555
    y: 0.0234646427225
    z: 0.71811041997
    w: -0.00616683154791
twist: 
  linear: 
    x: 0.0458667589409
    y: -0.00715757197747
    z: 0.00879233214614
  angular: 
    x: -0.0012096882561
    y: -0.0637492796398
    z: -0.00799425201734
wrench: 
  force: 
    x: 3.39638900757
    y: 2.76271247864
    z: -8.27076911926
  torque: 
    x: -0.109762698412
    y: -0.618553519249
    z: -0.818510830402
---
pose: 
  position: 
    x: 0.692968218315
    y: -0.245615260542
    z: 0.025104114086
  orientation: 
    x: 0.695498284339
    y: 0.0233949426915
    z: 0.718119144341
    w: -0.00630140212476
twist: 
  linear: 
    x: 0.038644491037
    y: -0.00789689852546
    z: -0.0021672586942
  angular: 
    x: 0.00290511785632
    y: -0.0165923161966
    z: -0.0170004999565
wrench: 
  force: 
    x: 2.30440163612
    y: 2.9979057312
    z: -6.89408969879
  torque: 
    x: -0.164291352034
    y: -0.261925905943
    z: -0.870816409588
---
pose: 
  position: 
    x: 0.693497367078
    y: -0.246339771222
    z: 0.0255860004826
  orientation: 
    x: 0.694844212572
    y: 0.0237151327913
    z: 0.718746025388
    w: -0.00576747087629
twist: 
  linear: 
    x: 0.0319562867208
    y: 0.00519134865533
    z: 0.00263808026485
  angular: 
    x: 0.0201787584043
    y: -0.0236282364676
    z: 0.00393377571948
wrench: 
  force: 
    x: 2.30172562599
    y: 2.69697332382
    z: -6.89802265167
  torque: 
    x: -0.130860701203
    y: -0.245870262384
    z: -0.788773775101
---
pose: 
  position: 
    x: 0.693520053819
    y: -0.245793646012
    z: 0.0248185034484
  orientation: 
    x: 0.695509413216
    y: 0.0234237839204
    z: 0.71810785978
    w: -0.00625173559059
twist: 
  linear: 
    x: 0.0287080503942
    y: -0.0155899823499
    z: 0.00170860800043
  angular: 
    x: -0.0154976853773
    y: -0.0155142969086
    z: -0.0206812017717
wrench: 
  force: 
    x: 3.13237285614
    y: 2.77357172966
    z: -8.24763870239
  torque: 
    x: -0.107320204377
    y: -0.649865925312
    z: -0.809947311878
---
pose: 
  position: 
    x: 0.693653643951
    y: -0.246215715369
    z: 0.0247340605908
  orientation: 
    x: 0.695375440847
    y: 0.0236672196897
    z: 0.718234451612
    w: -0.00566846515263
twist: 
  linear: 
    x: 0.0479503909931
    y: 0.00889015589555
    z: 0.0104098502184
  angular: 
    x: 0.00433417928867
    y: -0.0411358423792
    z: 0.0209393223691
wrench: 
  force: 
    x: 3.38070201874
    y: 2.88468241692
    z: -8.5594587326
  torque: 
    x: -0.112109541893
    y: -0.793911457062
    z: -0.846653342247
---
pose: 
  position: 
    x: 0.694481938047
    y: -0.246140203494
    z: 0.0252523575385
  orientation: 
    x: 0.694814674261
    y: 0.0238027221531
    z: 0.718771653052
    w: -0.0057714485671
twist: 
  linear: 
    x: 0.0281397462578
    y: -0.00668875837766
    z: -0.0105024706446
  angular: 
    x: -0.0306822144588
    y: -0.01594441211
    z: 0.000952760154284
wrench: 
  force: 
    x: 2.10303258896
    y: 2.74819469452
    z: -7.09578895569
  torque: 
    x: -0.13113039732
    y: -0.439099013805
    z: -0.795023083687
---
pose: 
  position: 
    x: 0.695038477614
    y: -0.246019064147
    z: 0.025473191335
  orientation: 
    x: 0.694557945612
    y: 0.023474837468
    z: 0.719027656303
    w: -0.00611732487167
twist: 
  linear: 
    x: 0.0367628450407
    y: -0.00993330476135
    z: 0.00222392878772
  angular: 
    x: -0.000418193591589
    y: -0.0390475899525
    z: -0.00329837121834
wrench: 
  force: 
    x: 2.01412677765
    y: 2.63702392578
    z: -6.86047267914
  torque: 
    x: -0.202418059111
    y: -0.376964896917
    z: -0.74656867981
---
pose: 
  position: 
    x: 0.695602185247
    y: -0.246686328719
    z: 0.0255782480255
  orientation: 
    x: 0.694450359189
    y: 0.0229674089127
    z: 0.719148354088
    w: -0.00606972508292
twist: 
  linear: 
    x: 0.048211990398
    y: -0.00664180151025
    z: 0.0130833579947
  angular: 
    x: -0.00332436931859
    y: -0.0573919485849
    z: -0.0157288149567
wrench: 
  force: 
    x: 2.95541286469
    y: 2.74230480194
    z: -8.04024124146
  torque: 
    x: -0.11144387722
    y: -0.669840633869
    z: -0.808723568916
---
pose: 
  position: 
    x: 0.695883917142
    y: -0.246101524177
    z: 0.0254026441985
  orientation: 
    x: 0.694413000817
    y: 0.0234271381532
    z: 0.719170648724
    w: -0.00594403133944
twist: 
  linear: 
    x: 0.0427553662975
    y: 0.00592058303478
    z: 0.00360658748812
  angular: 
    x: -0.00914047439438
    y: -0.0440897505678
    z: -0.000792547616964
wrench: 
  force: 
    x: 3.14880490303
    y: 2.84851026535
    z: -8.132563591
  torque: 
    x: -0.0940861701965
    y: -0.669126570225
    z: -0.871173977852
---
pose: 
  position: 
    x: 0.695599731277
    y: -0.246394176441
    z: 0.024714034023
  orientation: 
    x: 0.694827849117
    y: 0.0234992203944
    z: 0.718768334819
    w: -0.00584188274199
twist: 
  linear: 
    x: 0.0444218502883
    y: -0.00545683311885
    z: 0.00717502004551
  angular: 
    x: 0.0120184961728
    y: -0.0496056729251
    z: -0.0125355517074
wrench: 
  force: 
    x: 2.2503387928
    y: 2.83380317688
    z: -6.8220410347
  torque: 
    x: -0.128665074706
    y: -0.268877416849
    z: -0.857363402843
---
pose: 
  position: 
    x: 0.696299108553
    y: -0.246906142329
    z: 0.0248421599845
  orientation: 
    x: 0.694448372502
    y: 0.0234887119517
    z: 0.719141684843
    w: -0.0049975455088
twist: 
  linear: 
    x: 0.038109158063
    y: 0.000544568355592
    z: -0.00613671582259
  angular: 
    x: -0.00490831981395
    y: -0.00068165241462
    z: 0.0057444564498
wrench: 
  force: 
    x: 2.26545524597
    y: 2.47875404358
    z: -6.89709186554
  torque: 
    x: -0.194355905056
    y: -0.22141648829
    z: -0.683906018734
---
pose: 
  position: 
    x: 0.696990104496
    y: -0.246580580828
    z: 0.0254354394759
  orientation: 
    x: 0.694023892813
    y: 0.0236286451241
    z: 0.719543914768
    w: -0.00539240709974
twist: 
  linear: 
    x: 0.0348964888255
    y: -0.00670400550801
    z: 0.00407303024488
  angular: 
    x: -0.0161790006189
    y: -0.0316556458135
    z: 0.000629269699284
wrench: 
  force: 
    x: 2.93703651428
    y: 2.67037963867
    z: -7.40491628647
  torque: 
    x: -0.179309442639
    y: -0.300323098898
    z: -0.729233682156
---
pose: 
  position: 
    x: 0.696730216644
    y: -0.246863534176
    z: 0.0245573994381
  orientation: 
    x: 0.694719286582
    y: 0.0231333834011
    z: 0.718888252672
    w: -0.00544422577409
twist: 
  linear: 
    x: 0.035911190624
    y: 0.0114490958176
    z: -0.00194837549951
  angular: 
    x: 0.000589214984624
    y: -0.028253191822
    z: 0.0245825712219
wrench: 
  force: 
    x: 3.50719451904
    y: 2.50248527527
    z: -8.12986660004
  torque: 
    x: -0.138219356537
    y: -0.452282637358
    z: -0.698920071125
---
pose: 
  position: 
    x: 0.697413658231
    y: -0.246325761752
    z: 0.0248867374503
  orientation: 
    x: 0.694430674688
    y: 0.0238327899467
    z: 0.719143622686
    w: -0.00552142429249
twist: 
  linear: 
    x: 0.0400617650944
    y: -0.00901820318814
    z: -0.00608657666062
  angular: 
    x: -0.026926768942
    y: -0.0143760522483
    z: -0.00510735299274
wrench: 
  force: 
    x: 3.10338139534
    y: 2.82151293755
    z: -7.50888490677
  torque: 
    x: -0.109471082687
    y: -0.248042061925
    z: -0.817623615265
---
pose: 
  position: 
    x: 0.697414226514
    y: -0.246428859365
    z: 0.0247676679079
  orientation: 
    x: 0.694413452083
    y: 0.0236396617598
    z: 0.719165016918
    w: -0.00572733788888
twist: 
  linear: 
    x: 0.0383366939221
    y: 0.00458020009921
    z: 0.00565934772517
  angular: 
    x: -0.0129943788732
    y: -0.0158103947981
    z: 0.00152047153745
wrench: 
  force: 
    x: 2.73632621765
    y: 2.66537928581
    z: -7.13591003418
  torque: 
    x: -0.153497576714
    y: -0.184847131371
    z: -0.755236506462
---
pose: 
  position: 
    x: 0.697978333479
    y: -0.246579163268
    z: 0.0250105525387
  orientation: 
    x: 0.694297573066
    y: 0.0237439802323
    z: 0.719276352697
    w: -0.00535087729072
twist: 
  linear: 
    x: 0.0265740468002
    y: 0.000125594432002
    z: -0.000306926505578
  angular: 
    x: 0.008404058013
    y: -0.0252430155859
    z: -0.00240979367425
wrench: 
  force: 
    x: 3.357203722
    y: 2.61944174767
    z: -8.3302822113
  torque: 
    x: -0.157715708017
    y: -0.564601182938
    z: -0.757462620735
---
pose: 
  position: 
    x: 0.697979619096
    y: -0.246539673757
    z: 0.0246397094588
  orientation: 
    x: 0.694423094207
    y: 0.0235956014149
    z: 0.71915868772
    w: -0.00553133816091
twist: 
  linear: 
    x: 0.037643417745
    y: -0.000535202740496
    z: 0.00269891705268
  angular: 
    x: 0.0126434584541
    y: -0.034600189173
    z: 0.00199205005353
wrench: 
  force: 
    x: 3.69646334648
    y: 2.92024636269
    z: -8.77144908905
  torque: 
    x: -0.136691719294
    y: -0.707905828953
    z: -0.86090952158
---
pose: 
  position: 
    x: 0.699101664097
    y: -0.246676964574
    z: 0.0252387582376
  orientation: 
    x: 0.693886276978
    y: 0.0234363129534
    z: 0.71968263787
    w: -0.00542905186152
twist: 
  linear: 
    x: 0.0267154693699
    y: -0.00268656138299
    z: -0.0113984303716
  angular: 
    x: -0.00138271435003
    y: -0.00217054442288
    z: -0.00436207269812
wrench: 
  force: 
    x: 2.56072330475
    y: 2.46877980232
    z: -7.40215730667
  torque: 
    x: -0.205832958221
    y: -0.391795665026
    z: -0.66785877943
---
pose: 
  position: 
    x: 0.699102243436
    y: -0.245976739623
    z: 0.0250264997743
  orientation: 
    x: 0.693994240649
    y: 0.023445877062
    z: 0.719573340511
    w: -0.00604089575606
twist: 
  linear: 
    x: 0.0444734889176
    y: -0.00431121862109
    z: 0.00922569922844
  angular: 
    x: -0.0370710102979
    y: -0.0371399533704
    z: -0.00844391181212
wrench: 
  force: 
    x: 2.21293449402
    y: 2.8684463501
    z: -7.40941286087
  torque: 
    x: -0.109911337495
    y: -0.431014329195
    z: -0.880607843399
---
pose: 
  position: 
    x: 0.699110582738
    y: -0.246766682741
    z: 0.0246336963735
  orientation: 
    x: 0.694309239791
    y: 0.0233654209628
    z: 0.719278046174
    w: -0.00527531380881
twist: 
  linear: 
    x: 0.0289711767349
    y: -0.011543618239
    z: -0.0114821814462
  angular: 
    x: -0.0303887829789
    y: 0.000885617993896
    z: -0.0105815181868
wrench: 
  force: 
    x: 2.80755758286
    y: 3.04655432701
    z: -8.35345649719
  torque: 
    x: -0.0526793003082
    y: -0.703461050987
    z: -0.937896847725
---
pose: 
  position: 
    x: 0.699933663863
    y: -0.246002456878
    z: 0.0251622912204
  orientation: 
    x: 0.693576254326
    y: 0.0236214877732
    z: 0.719972163892
    w: -0.00583849054783
twist: 
  linear: 
    x: 0.0321178518789
    y: -0.00295726953333
    z: -0.00247832954686
  angular: 
    x: 0.0249124575243
    y: -0.0320046033858
    z: 0.00160641477534
wrench: 
  force: 
    x: 3.28483390808
    y: 2.72065830231
    z: -8.29895973206
  torque: 
    x: -0.14522536099
    y: -0.614304244518
    z: -0.755717933178
---
pose: 
  position: 
    x: 0.699909335263
    y: -0.246164880543
    z: 0.0244896099655
  orientation: 
    x: 0.693866858229
    y: 0.0239399416546
    z: 0.719680599421
    w: -0.00595794109649
twist: 
  linear: 
    x: 0.045276344475
    y: 0.0180186902458
    z: 0.00913499718926
  angular: 
    x: 0.0350263355001
    y: -0.0516844283098
    z: 0.0379509441161
wrench: 
  force: 
    x: 2.3809158802
    y: 2.62162780762
    z: -6.81853485107
  torque: 
    x: -0.173350408673
    y: -0.227591201663
    z: -0.715358316898
---
pose: 
  position: 
    x: 0.700489792965
    y: -0.245653308946
    z: 0.0249453292626
  orientation: 
    x: 0.69371568521
    y: 0.0233851399211
    z: 0.719838334548
    w: -0.00666749121617
twist: 
  linear: 
    x: 0.0383088880665
    y: 0.00279986759156
    z: -0.0095631870786
  angular: 
    x: 0.0148541826801
    y: -0.0192561826411
    z: -0.00330372109452
wrench: 
  force: 
    x: 2.18692445755
    y: 2.69577980042
    z: -6.7166762352
  torque: 
    x: -0.130397081375
    y: -0.169294446707
    z: -0.801908493042
---
pose: 
  position: 
    x: 0.700345257493
    y: -0.246396254305
    z: 0.0240843615845
  orientation: 
    x: 0.694279297641
    y: 0.0240145804774
    z: 0.719282512024
    w: -0.00567667930038
twist: 
  linear: 
    x: 0.0384602701648
    y: 0.00388338316865
    z: 0.00244982569667
  angular: 
    x: 0.000604007695065
    y: -0.0144038779393
    z: 0.0081345980401
wrench: 
  force: 
    x: 2.84008526802
    y: 2.58530378342
    z: -7.37593746185
  torque: 
    x: -0.09920373559
    y: -0.278032779694
    z: -0.776146531105
---
pose: 
  position: 
    x: 0.701466146613
    y: -0.246208229023
    z: 0.025281515678
  orientation: 
    x: 0.693177760486
    y: 0.0235826110409
    z: 0.720356923537
    w: -0.00586135964414
twist: 
  linear: 
    x: 0.0330989177562
    y: -0.00654964335745
    z: 0.00465530093686
  angular: 
    x: -0.000265474024719
    y: -0.0346518473739
    z: -0.00801889393366
wrench: 
  force: 
    x: 3.52730107307
    y: 2.67834687233
    z: -8.20423412323
  torque: 
    x: -0.138970598578
    y: -0.460855484009
    z: -0.74375897646
---
pose: 
  position: 
    x: 0.701746505836
    y: -0.24637916312
    z: 0.025104068801
  orientation: 
    x: 0.693317622712
    y: 0.0238679606557
    z: 0.7202153012
    w: -0.00556007266988
twist: 
  linear: 
    x: 0.0342458085651
    y: -0.0125701661952
    z: -0.00519361074644
  angular: 
    x: -0.0256349575061
    y: -0.0108148696691
    z: -0.00697353584317
wrench: 
  force: 
    x: 3.40388178825
    y: 2.65465450287
    z: -7.79399585724
  torque: 
    x: -0.132699206471
    y: -0.325491040945
    z: -0.756433308125
---
pose: 
  position: 
    x: 0.702294169008
    y: -0.246124177652
    z: 0.0251810386505
  orientation: 
    x: 0.692895909565
    y: 0.0235980396556
    z: 0.72062553515
    w: -0.00610156721555
twist: 
  linear: 
    x: 0.0424223703166
    y: 0.000705190803006
    z: 0.00224106931368
  angular: 
    x: 0.0278616430078
    y: -0.0255957491582
    z: -0.0149008163704
wrench: 
  force: 
    x: 3.03839039803
    y: 2.59834527969
    z: -7.29097795486
  torque: 
    x: -0.133559331298
    y: -0.157742321491
    z: -0.74495434761
---
pose: 
  position: 
    x: 0.702715558463
    y: -0.246691265535
    z: 0.0253027903283
  orientation: 
    x: 0.692787845229
    y: 0.0237947260251
    z: 0.720729279977
    w: -0.00530259364908
twist: 
  linear: 
    x: 0.0536575105069
    y: 0.00132564187678
    z: 0.015077386878
  angular: 
    x: 0.00203104844766
    y: -0.0570594490463
    z: -0.00207294690488
wrench: 
  force: 
    x: 3.07847499847
    y: 2.5953400135
    z: -7.46916627884
  torque: 
    x: -0.113736689091
    y: -0.166510134935
    z: -0.745726704597
---
pose: 
  position: 
    x: 0.703005678585
    y: -0.246231447959
    z: 0.0249270173214
  orientation: 
    x: 0.693043104569
    y: 0.0235766662361
    z: 0.72048632059
    w: -0.00590405468819
twist: 
  linear: 
    x: 0.0400103246542
    y: -0.00486376718788
    z: -0.00112967998738
  angular: 
    x: -0.00154001440804
    y: -0.0134445843012
    z: 0.00361884665274
wrench: 
  force: 
    x: 3.18754291534
    y: 2.54963922501
    z: -8.01245689392
  torque: 
    x: -0.146477267146
    y: -0.345737427473
    z: -0.699582874775
---
pose: 
  position: 
    x: 0.703433573958
    y: -0.246234389655
    z: 0.0251259344809
  orientation: 
    x: 0.693033157238
    y: 0.0238908366276
    z: 0.720487880893
    w: -0.00561109443837
twist: 
  linear: 
    x: 0.0297782716723
    y: -0.00326182945963
    z: -0.0105622816999
  angular: 
    x: -0.01143833106
    y: 0.00807454093827
    z: 0.00821686678622
wrench: 
  force: 
    x: 3.22236132622
    y: 2.90453314781
    z: -7.99843597412
  torque: 
    x: -0.0757508575916
    y: -0.379549145699
    z: -0.875039100647
---
pose: 
  position: 
    x: 0.703716489614
    y: -0.247292705808
    z: 0.0249909119907
  orientation: 
    x: 0.692949403959
    y: 0.0233985010669
    z: 0.720589413644
    w: -0.00495284218714
twist: 
  linear: 
    x: 0.0330721403991
    y: -0.0120144496067
    z: -0.00602967514843
  angular: 
    x: -0.0140500855606
    y: -0.0101484682838
    z: -0.0164507359091
wrench: 
  force: 
    x: 3.03412008286
    y: 2.77147006989
    z: -7.7101187706
  torque: 
    x: -0.105306431651
    y: -0.320342242718
    z: -0.812647402287
---
pose: 
  position: 
    x: 0.704265360105
    y: -0.246848149793
    z: 0.0251372303125
  orientation: 
    x: 0.692794494396
    y: 0.023509205544
    z: 0.720729536923
    w: -0.00566042362675
twist: 
  linear: 
    x: 0.0457445221762
    y: -0.000256761246992
    z: 0.00147702234949
  angular: 
    x: -0.00357783802903
    y: -0.0323029180306
    z: -0.000704397171028
wrench: 
  force: 
    x: 2.72207093239
    y: 2.84897327423
    z: -7.55222702026
  torque: 
    x: -0.141320586205
    y: -0.262383908033
    z: -0.806876957417
---
pose: 
  position: 
    x: 0.704546839883
    y: -0.246851518491
    z: 0.0250811843599
  orientation: 
    x: 0.692785120181
    y: 0.0238008940627
    z: 0.720731209842
    w: -0.00536822657062
twist: 
  linear: 
    x: 0.0377168079856
    y: -0.00256548541397
    z: -0.00424475055629
  angular: 
    x: 0.0227793546703
    y: 0.000605396429321
    z: -0.0104079642374
wrench: 
  force: 
    x: 2.61364626884
    y: 2.70501375198
    z: -7.4122633934
  torque: 
    x: -0.107165336609
    y: -0.261957764626
    z: -0.808362543583
---
pose: 
  position: 
    x: 0.704692684712
    y: -0.246587200621
    z: 0.0243496784694
  orientation: 
    x: 0.693335329244
    y: 0.0238524475221
    z: 0.72019805142
    w: -0.00565231810387
twist: 
  linear: 
    x: 0.0352239995802
    y: -0.0125246217907
    z: 7.20726745875e-05
  angular: 
    x: -0.0157356319369
    y: -0.00871012606237
    z: -0.01789589874
wrench: 
  force: 
    x: 2.9727871418
    y: 2.57394313812
    z: -7.88506412506
  torque: 
    x: -0.141829460859
    y: -0.402041047812
    z: -0.730542242527
---
pose: 
  position: 
    x: 0.705248508812
    y: -0.246943844126
    z: 0.0250230640599
  orientation: 
    x: 0.692507085051
    y: 0.0235898941097
    z: 0.721005584068
    w: -0.00532933320938
twist: 
  linear: 
    x: 0.0342347444474
    y: -0.0105321883776
    z: -0.00123758702766
  angular: 
    x: -0.00122020391319
    y: -0.02410593271
    z: -0.00876807822643
wrench: 
  force: 
    x: 3.260597229
    y: 2.66983819008
    z: -8.3573102951
  torque: 
    x: -0.106085702777
    y: -0.557073056698
    z: -0.765449285507
---
pose: 
  position: 
    x: 0.705402346336
    y: -0.246783899888
    z: 0.024428624343
  orientation: 
    x: 0.693063040136
    y: 0.0236789371904
    z: 0.720468372113
    w: -0.00531555417247
twist: 
  linear: 
    x: 0.0466510419577
    y: -0.00150327631175
    z: 0.0128074208398
  angular: 
    x: 0.0109281513867
    y: -0.0606730709429
    z: -0.006794291254
wrench: 
  force: 
    x: 2.91080379486
    y: 2.68108463287
    z: -8.04053020477
  torque: 
    x: -0.0696463137865
    y: -0.49122980237
    z: -0.815557837486
---
pose: 
  position: 
    x: 0.70610152719
    y: -0.246638937763
    z: 0.0250098734859
  orientation: 
    x: 0.692499462629
    y: 0.0237239501181
    z: 0.721008908
    w: -0.00527475441683
twist: 
  linear: 
    x: 0.0334470765761
    y: 0.0153746139542
    z: -0.00156299119975
  angular: 
    x: 0.0343712526964
    y: -0.0198657666674
    z: 0.0157344839733
wrench: 
  force: 
    x: 2.51218605042
    y: 2.74686598778
    z: -7.5768661499
  torque: 
    x: -0.116971746087
    y: -0.370621740818
    z: -0.802400767803
---
pose: 
  position: 
    x: 0.706361067219
    y: -0.247036612001
    z: 0.0251466696568
  orientation: 
    x: 0.692231641251
    y: 0.0237567093201
    z: 0.721263995864
    w: -0.00540572686331
twist: 
  linear: 
    x: 0.0327742831842
    y: -0.00308145899138
    z: -0.00359638048755
  angular: 
    x: 0.0374873242868
    y: 0.00550553141868
    z: -0.00385900675876
wrench: 
  force: 
    x: 2.59849357605
    y: 2.71561670303
    z: -7.5282740593
  torque: 
    x: -0.136788025498
    y: -0.321769595146
    z: -0.779704153538
---
pose: 
  position: 
    x: 0.706942447333
    y: -0.247047763635
    z: 0.0250600268653
  orientation: 
    x: 0.692231996264
    y: 0.023346052374
    z: 0.721277259616
    w: -0.00537958620016
twist: 
  linear: 
    x: 0.0341309575529
    y: -0.0135182218045
    z: -0.00851808701954
  angular: 
    x: -0.0347859943751
    y: -0.0142603610765
    z: -0.0117312244312
wrench: 
  force: 
    x: 3.34655404091
    y: 2.63778781891
    z: -8.23711204529
  torque: 
    x: -0.118863210082
    y: -0.477311253548
    z: -0.741832613945
---
pose: 
  position: 
    x: 0.706945817577
    y: -0.24721074936
    z: 0.0248356756123
  orientation: 
    x: 0.692528167289
    y: 0.0230856349612
    z: 0.720999194907
    w: -0.00565260225972
twist: 
  linear: 
    x: 0.0344130216948
    y: -0.0123234566079
    z: -0.0085168864157
  angular: 
    x: -0.0231776892817
    y: -0.0140790310249
    z: -0.00123839587569
wrench: 
  force: 
    x: 3.24005746841
    y: 2.7053706646
    z: -8.01679325104
  torque: 
    x: -0.078807502985
    y: -0.413881629705
    z: -0.80822467804
---
pose: 
  position: 
    x: 0.707490792707
    y: -0.247016491574
    z: 0.0247784539289
  orientation: 
    x: 0.692250446273
    y: 0.0236556348788
    z: 0.721250137835
    w: -0.00528859590196
twist: 
  linear: 
    x: 0.037415679604
    y: 0.00120494146131
    z: 0.000711401798925
  angular: 
    x: 0.0145719189096
    y: -0.0312909764208
    z: 0.00141455644316
wrench: 
  force: 
    x: 2.67939186096
    y: 2.73145294189
    z: -7.37066602707
  torque: 
    x: -0.0549255758524
    y: -0.223611399531
    z: -0.857118785381
---
pose: 
  position: 
    x: 0.707638649796
    y: -0.246984412123
    z: 0.0249122558023
  orientation: 
    x: 0.692237897707
    y: 0.0235258910999
    z: 0.72126513015
    w: -0.00546236714491
twist: 
  linear: 
    x: 0.0389514024522
    y: 0.0124992049601
    z: 0.0111357919862
  angular: 
    x: 0.0595785711625
    y: -0.0508858181812
    z: 0.00552526162332
wrench: 
  force: 
    x: 2.33115696907
    y: 2.62172174454
    z: -7.06152915955
  torque: 
    x: -0.0895824581385
    y: -0.102576233447
    z: -0.818025529385
---
pose: 
  position: 
    x: 0.707638433209
    y: -0.246971444806
    z: 0.0240283800908
  orientation: 
    x: 0.692647412503
    y: 0.0236754012466
    z: 0.720867986485
    w: -0.00532760637835
twist: 
  linear: 
    x: 0.0310643128327
    y: -0.0136358343696
    z: -0.00718898184576
  angular: 
    x: -0.0161908986397
    y: -0.00021024989971
    z: -0.0173607372866
wrench: 
  force: 
    x: 3.02395415306
    y: 2.51467227936
    z: -7.75231027603
  torque: 
    x: -0.131197392941
    y: -0.264392584562
    z: -0.697447776794
---
pose: 
  position: 
    x: 0.708477711312
    y: -0.247001860674
    z: 0.0247154075573
  orientation: 
    x: 0.692108402048
    y: 0.0233217738786
    z: 0.721394325051
    w: -0.00568176572352
twist: 
  linear: 
    x: 0.0445231785721
    y: -0.0119911015931
    z: 0.00544984218151
  angular: 
    x: 0.0169261086468
    y: -0.0439375969956
    z: -0.0153639132773
wrench: 
  force: 
    x: 3.8645067215
    y: 2.54999017715
    z: -8.56248950958
  torque: 
    x: -0.0956541746855
    y: -0.48875400424
    z: -0.742651581764
---
pose: 
  position: 
    x: 0.709045042444
    y: -0.247652198549
    z: 0.0249364828266
  orientation: 
    x: 0.691881978799
    y: 0.022603104123
    z: 0.72163515663
    w: -0.005579230522
twist: 
  linear: 
    x: 0.0430452919654
    y: -0.0031734487178
    z: -0.00277685651545
  angular: 
    x: 0.0134228319302
    y: -0.0232417685213
    z: 0.0064087953707
wrench: 
  force: 
    x: 3.16935181618
    y: 2.71242284775
    z: -7.61536502838
  torque: 
    x: -0.0927056819201
    y: -0.230543613434
    z: -0.809978604317
---
pose: 
  position: 
    x: 0.709190942943
    y: -0.246414431754
    z: 0.0247555896943
  orientation: 
    x: 0.692079012816
    y: 0.023560465538
    z: 0.721413721314
    w: -0.00581267445058
twist: 
  linear: 
    x: 0.0375000343553
    y: -0.00851018898234
    z: 0.00366685909764
  angular: 
    x: -0.0147481812907
    y: -0.0351120232379
    z: -0.0170380186925
wrench: 
  force: 
    x: 2.96434092522
    y: 3.03665089607
    z: -7.28335189819
  torque: 
    x: -0.0518665760756
    y: -0.143170177937
    z: -0.948635220528
---
pose: 
  position: 
    x: 0.708908331808
    y: -0.247099441356
    z: 0.0238892386111
  orientation: 
    x: 0.692532112792
    y: 0.0232803159942
    z: 0.720990310976
    w: -0.0055019194142
twist: 
  linear: 
    x: 0.0303414201011
    y: 0.0088545800861
    z: -0.00551159099603
  angular: 
    x: -0.00668806623162
    y: -0.0054675274523
    z: 0.000314794355643
wrench: 
  force: 
    x: 3.45908284187
    y: 2.80368447304
    z: -7.8928694725
  torque: 
    x: -0.0577861517668
    y: -0.334942907095
    z: -0.866709828377
---
pose: 
  position: 
    x: 0.709757559351
    y: -0.247171675807
    z: 0.0244688019825
  orientation: 
    x: 0.691965067878
    y: 0.0229258216775
    z: 0.7215449007
    w: -0.00563096898954
twist: 
  linear: 
    x: 0.0437898703286
    y: 0.0103038726614
    z: 0.00915324186166
  angular: 
    x: 0.0199135228274
    y: -0.038191375945
    z: 0.0267825642393
wrench: 
  force: 
    x: 3.64613604546
    y: 2.94357657433
    z: -8.26455783844
  torque: 
    x: -0.134258642793
    y: -0.497371524572
    z: -0.842568635941
---
pose: 
  position: 
    x: 0.710315778069
    y: -0.247221082997
    z: 0.0248411891628
  orientation: 
    x: 0.691696400691
    y: 0.0232422972261
    z: 0.721795001442
    w: -0.00527833157392
twist: 
  linear: 
    x: 0.0320304173125
    y: -0.00834957431253
    z: -0.0106782646449
  angular: 
    x: 0.00419167121395
    y: -0.0114094852144
    z: -0.0158567974043
wrench: 
  force: 
    x: 2.825527668
    y: 2.66107988358
    z: -7.31370830536
  torque: 
    x: -0.113652855158
    y: -0.275971978903
    z: -0.819503128529
---
pose: 
  position: 
    x: 0.710576325499
    y: -0.247616331299
    z: 0.0247337470925
  orientation: 
    x: 0.691557562372
    y: 0.0235516967337
    z: 0.721919045363
    w: -0.00513297663028
twist: 
  linear: 
    x: 0.039248977993
    y: -0.011236798751
    z: 0.00418386668233
  angular: 
    x: -0.0201835681177
    y: -0.0388117247953
    z: -0.0110247529466
wrench: 
  force: 
    x: 2.61674451828
    y: 2.80349993706
    z: -6.95022630692
  torque: 
    x: -0.0452212542295
    y: -0.152934387326
    z: -0.900010883808
---
pose: 
  position: 
    x: 0.711011856856
    y: -0.247526347356
    z: 0.0249317343146
  orientation: 
    x: 0.691414005154
    y: 0.0230883165371
    z: 0.722069456875
    w: -0.00541318436663
twist: 
  linear: 
    x: 0.0374442457573
    y: -0.0128353590713
    z: 0.000410637543548
  angular: 
    x: -0.0100976043955
    y: -0.0155176430713
    z: -0.0192927180227
wrench: 
  force: 
    x: 3.02700042725
    y: 2.9135825634
    z: -7.7400135994
  torque: 
    x: -0.0662290900946
    y: -0.394630342722
    z: -0.901414871216
---
pose: 
  position: 
    x: 0.711579674312
    y: -0.247925212046
    z: 0.0250525631194
  orientation: 
    x: 0.691302903072
    y: 0.0230433638378
    z: 0.722180915664
    w: -0.00490149342452
twist: 
  linear: 
    x: 0.0433306679709
    y: -0.00308785943792
    z: 0.0110101660796
  angular: 
    x: -0.0295936057056
    y: -0.0318601910829
    z: 0.00669126268381
wrench: 
  force: 
    x: 3.48494195938
    y: 2.76474046707
    z: -8.66237735748
  torque: 
    x: -0.0658898204565
    y: -0.672762095928
    z: -0.850449621677
---
pose: 
  position: 
    x: 0.711437985993
    y: -0.247066367657
    z: 0.0240824766874
  orientation: 
    x: 0.691693318555
    y: 0.0230786673986
    z: 0.72180161649
    w: -0.00549132129334
twist: 
  linear: 
    x: 0.0374927820416
    y: -0.005210855972
    z: -0.00448801041734
  angular: 
    x: -0.0108233622429
    y: -0.0200704022439
    z: -0.00888527256672
wrench: 
  force: 
    x: 2.88578748703
    y: 2.9277215004
    z: -7.72854232788
  torque: 
    x: -0.0852965563536
    y: -0.426980435848
    z: -0.904311358929
---
pose: 
  position: 
    x: 0.712689655454
    y: -0.247012059097
    z: 0.0253083044188
  orientation: 
    x: 0.690714955423
    y: 0.0232387157244
    z: 0.722732262569
    w: -0.00555779524868
twist: 
  linear: 
    x: 0.0451014996485
    y: -0.00747313485893
    z: -0.00233286415217
  angular: 
    x: -0.0287200797397
    y: -0.0399455239986
    z: -0.0126170139316
wrench: 
  force: 
    x: 2.10641503334
    y: 2.89313101768
    z: -6.64752292633
  torque: 
    x: -0.106256783009
    y: -0.143575653434
    z: -0.88602823019
---
pose: 
  position: 
    x: 0.712971603246
    y: -0.247439234599
    z: 0.0252433367589
  orientation: 
    x: 0.690731461814
    y: 0.0231137642914
    z: 0.722721773002
    w: -0.00538891353812
twist: 
  linear: 
    x: 0.0487743536729
    y: 0.00313301351775
    z: 0.00623640234551
  angular: 
    x: 0.0169246526237
    y: -0.0554872070586
    z: 0.00588084025435
wrench: 
  force: 
    x: 2.02140974998
    y: 2.81377029419
    z: -6.78519582748
  torque: 
    x: -0.142769411206
    y: -0.193281576037
    z: -0.832330107689
---
pose: 
  position: 
    x: 0.712990709066
    y: -0.24713251017
    z: 0.0245956099363
  orientation: 
    x: 0.691399878732
    y: 0.0232875375718
    z: 0.722075240831
    w: -0.00558971042601
twist: 
  linear: 
    x: 0.0361890537473
    y: -0.00307992266693
    z: -0.00220688545855
  angular: 
    x: 0.00954824135456
    y: -0.0111900024551
    z: -0.00557157078118
wrench: 
  force: 
    x: 2.67467689514
    y: 3.03480529785
    z: -7.37303352356
  torque: 
    x: -0.116010457277
    y: -0.291719347239
    z: -0.915454030037
---
pose: 
  position: 
    x: 0.713811851296
    y: -0.246842291799
    z: 0.024998287884
  orientation: 
    x: 0.690848451777
    y: 0.0235714399378
    z: 0.722592114623
    w: -0.00578271397426
twist: 
  linear: 
    x: 0.0498075125029
    y: -0.000866982128636
    z: 0.0175505214647
  angular: 
    x: -0.00465227941186
    y: -0.0599407234182
    z: -0.00203661967401
wrench: 
  force: 
    x: 3.11982607841
    y: 2.68610262871
    z: -7.81592750549
  torque: 
    x: -0.0789822936058
    y: -0.37191388011
    z: -0.838893949986
---
pose: 
  position: 
    x: 0.714392095444
    y: -0.2471458421
    z: 0.0253982465951
  orientation: 
    x: 0.690589626178
    y: 0.0231547239697
    z: 0.722855621883
    w: -0.00543846353226
twist: 
  linear: 
    x: 0.0374453531124
    y: 0.00083997006982
    z: 0.00126758546948
  angular: 
    x: 0.0223212244697
    y: -0.0146989165087
    z: 0.00436225535011
wrench: 
  force: 
    x: 2.54344272614
    y: 2.78909277916
    z: -7.48950529099
  torque: 
    x: -0.109310314059
    y: -0.316669017076
    z: -0.846913516521
---
pose: 
  position: 
    x: 0.714791298698
    y: -0.246871680351
    z: 0.0252860565514
  orientation: 
    x: 0.690428496052
    y: 0.0237637427881
    z: 0.722988738306
    w: -0.00557320830972
twist: 
  linear: 
    x: 0.0305104511637
    y: -0.00143795520325
    z: -0.00111842239456
  angular: 
    x: -0.00816045428405
    y: -0.0173650838284
    z: 0.00351122364393
wrench: 
  force: 
    x: 2.50058531761
    y: 2.70785021782
    z: -7.43715620041
  torque: 
    x: -0.088350892067
    y: -0.24551397562
    z: -0.861225605011
---
pose: 
  position: 
    x: 0.713853117577
    y: -0.247424513087
    z: 0.0236720657697
  orientation: 
    x: 0.691698355543
    y: 0.0227819207408
    z: 0.721807138042
    w: -0.00536884515481
twist: 
  linear: 
    x: 0.0353416630702
    y: -0.0154350059385
    z: 0.000578076818965
  angular: 
    x: -0.0362514030706
    y: -0.0262654524306
    z: -0.0210750645963
wrench: 
  force: 
    x: 2.97060489655
    y: 2.79533886909
    z: -7.86139249802
  torque: 
    x: -0.101845636964
    y: -0.315474539995
    z: -0.833540022373
---
pose: 
  position: 
    x: 0.714381856815
    y: -0.247791943508
    z: 0.0239813104167
  orientation: 
    x: 0.691297647407
    y: 0.0234993508467
    z: 0.722170511968
    w: -0.00500947522022
twist: 
  linear: 
    x: 0.0305210885185
    y: -0.00279179956271
    z: -0.00983302032616
  angular: 
    x: -0.0219219074012
    y: -0.00805655206571
    z: -3.11521861547e-05
wrench: 
  force: 
    x: 3.45142483711
    y: 2.430975914
    z: -8.18127918243
  torque: 
    x: -0.111494034529
    y: -0.398617088795
    z: -0.719415664673
---
pose: 
  position: 
    x: 0.715071161481
    y: -0.247882223467
    z: 0.0240620966166
  orientation: 
    x: 0.691013514086
    y: 0.0238915923919
    z: 0.722430771277
    w: -0.0048265801387
twist: 
  linear: 
    x: 0.035417122369
    y: -0.00884626562204
    z: -0.0108626841827
  angular: 
    x: -0.0113928111802
    y: -0.00195972886195
    z: -0.00221544568829
wrench: 
  force: 
    x: 3.48032975197
    y: 2.87785434723
    z: -7.97213983536
  torque: 
    x: -0.0581635385752
    y: -0.325907468796
    z: -0.915499091148
---
pose: 
  position: 
    x: 0.715925265426
    y: -0.247839977825
    z: 0.0246702393927
  orientation: 
    x: 0.69059632039
    y: 0.0238611641925
    z: 0.722831920669
    w: -0.00462402088027
twist: 
  linear: 
    x: 0.0353591656529
    y: 0.0116852102541
    z: -0.00935552278145
  angular: 
    x: -0.0136754171639
    y: 0.00643940651305
    z: 0.014595990044
wrench: 
  force: 
    x: 2.80134534836
    y: 2.86035490036
    z: -7.07131814957
  torque: 
    x: -0.0411203056574
    y: -0.0861518979073
    z: -0.942017972469
---
pose: 
  position: 
    x: 0.716064740032
    y: -0.247699295974
    z: 0.0245004124013
  orientation: 
    x: 0.690623932389
    y: 0.0232362296907
    z: 0.722821384756
    w: -0.00528274365502
twist: 
  linear: 
    x: 0.0337697996526
    y: 0.0174997930893
    z: 0.00170509994325
  angular: 
    x: 0.0296222651643
    y: -0.0150670714285
    z: 0.0223378080785
wrench: 
  force: 
    x: 2.58709669113
    y: 2.70689725876
    z: -6.95029830933
  torque: 
    x: -0.0396580696106
    y: -0.0711649730802
    z: -0.879383146763
---
pose: 
  position: 
    x: 0.716768617747
    y: -0.247524229692
    z: 0.0251205130271
  orientation: 
    x: 0.690032833967
    y: 0.0235340695528
    z: 0.723378071335
    w: -0.00500015298431
twist: 
  linear: 
    x: 0.0369054787241
    y: -0.0140818963825
    z: -0.00721704335694
  angular: 
    x: -0.0281845660011
    y: -0.000424141549906
    z: -0.0110508840008
wrench: 
  force: 
    x: 2.96828436852
    y: 2.56818771362
    z: -7.65555334091
  torque: 
    x: -0.0946258306503
    y: -0.299894660711
    z: -0.755715787411
---
pose: 
  position: 
    x: 0.717048804667
    y: -0.247868527308
    z: 0.0246932789525
  orientation: 
    x: 0.690328128596
    y: 0.0236755374082
    z: 0.723092852706
    w: -0.00482391575617
twist: 
  linear: 
    x: 0.0479955464079
    y: -0.0109082267435
    z: 0.0167827779672
  angular: 
    x: -0.0129065971289
    y: -0.0514801718785
    z: -0.0154752717797
wrench: 
  force: 
    x: 3.21871042252
    y: 2.90343904495
    z: -8.04470252991
  torque: 
    x: -0.0304231494665
    y: -0.40687379241
    z: -0.922190189362
---
pose: 
  position: 
    x: 0.71734045124
    y: -0.247948680516
    z: 0.0246602261724
  orientation: 
    x: 0.690321278628
    y: 0.0235855258989
    z: 0.723103256526
    w: -0.00468355022877
twist: 
  linear: 
    x: 0.0399820738864
    y: -0.00444847785533
    z: 0.0014981250401
  angular: 
    x: 0.00620442641672
    y: -0.0245211606907
    z: -0.00410339330974
wrench: 
  force: 
    x: 2.69053840637
    y: 3.29624176025
    z: -7.55928182602
  torque: 
    x: 0.0156013220549
    y: -0.246483847499
    z: -1.08159840107
---
pose: 
  position: 
    x: 0.717482105936
    y: -0.247162651153
    z: 0.0246959915093
  orientation: 
    x: 0.690435990571
    y: 0.0237375842905
    z: 0.722983662413
    w: -0.0054123838946
twist: 
  linear: 
    x: 0.0341442736981
    y: 0.00677190828632
    z: -0.00989280571006
  angular: 
    x: 0.0200462359171
    y: -0.00179116023759
    z: -0.00121382882044
wrench: 
  force: 
    x: 2.56864476204
    y: 3.22101569176
    z: -7.53620481491
  torque: 
    x: 0.0145097970963
    y: -0.278140932322
    z: -1.06162524223
---
pose: 
  position: 
    x: 0.717904244575
    y: -0.247562839429
    z: 0.024565429171
  orientation: 
    x: 0.690325208068
    y: 0.0236651825074
    z: 0.723095434733
    w: -0.00490494761569
twist: 
  linear: 
    x: 0.0409040294254
    y: 0.0134788357545
    z: -0.00148068582107
  angular: 
    x: 0.00875248052354
    y: -0.0101270253369
    z: 0.0178883211052
wrench: 
  force: 
    x: 2.91410660744
    y: 2.89558911324
    z: -7.8099656105
  torque: 
    x: 0.0295733362436
    y: -0.349565923214
    z: -0.971531271935
---
pose: 
  position: 
    x: 0.718466527068
    y: -0.247523023286
    z: 0.0245793420622
  orientation: 
    x: 0.690028380761
    y: 0.0232700933408
    z: 0.723388388538
    w: -0.00534563640512
twist: 
  linear: 
    x: 0.0438602041204
    y: 0.00874337708064
    z: 0.0153578453394
  angular: 
    x: 0.00234558744457
    y: -0.0626201142612
    z: 0.0246688532105
wrench: 
  force: 
    x: 3.499573946
    y: 3.23135399818
    z: -8.2312746048
  torque: 
    x: 0.0487257689238
    y: -0.452864170074
    z: -1.09499204159
---
pose: 
  position: 
    x: 0.718335704735
    y: -0.247505633721
    z: 0.0241446964924
  orientation: 
    x: 0.690438792185
    y: 0.0234194685747
    z: 0.722992714885
    w: -0.00522847591024
twist: 
  linear: 
    x: 0.0402814283124
    y: -0.00906215665403
    z: 0.00551357550788
  angular: 
    x: -0.000790808803325
    y: -0.0422896403787
    z: -0.0148029644581
wrench: 
  force: 
    x: 2.88027334213
    y: 2.98210573196
    z: -7.64621686935
  torque: 
    x: -0.0513958483934
    y: -0.341713488102
    z: -0.931227147579
---
pose: 
  position: 
    x: 0.719717306285
    y: -0.247747744464
    z: 0.0254202451251
  orientation: 
    x: 0.689204257502
    y: 0.0234453226891
    z: 0.724169768459
    w: -0.00509457898672
twist: 
  linear: 
    x: 0.0458138107914
    y: -0.00639259443839
    z: 0.0130474651388
  angular: 
    x: -0.0105795883004
    y: -0.0501690417858
    z: -0.0201645764204
wrench: 
  force: 
    x: 2.05613827705
    y: 2.73702168465
    z: -7.10611200333
  torque: 
    x: -0.00766475498676
    y: -0.20511212945
    z: -0.923386991024
---
pose: 
  position: 
    x: 0.71985823174
    y: -0.247349254299
    z: 0.0251479205747
  orientation: 
    x: 0.689342646472
    y: 0.0236249415715
    z: 0.724031412407
    w: -0.00520497245443
twist: 
  linear: 
    x: 0.0507368275133
    y: -0.00105030705674
    z: 0.0144865753632
  angular: 
    x: -0.0030953510515
    y: -0.0361332715705
    z: 0.00345913548067
wrench: 
  force: 
    x: 2.0397875309
    y: 3.26607370377
    z: -7.00972509384
  torque: 
    x: 0.0139459073544
    y: -0.129415884614
    z: -1.09769570827
---
pose: 
  position: 
    x: 0.720017431643
    y: -0.247732256918
    z: 0.0248137697111
  orientation: 
    x: 0.689762061273
    y: 0.0233797410531
    z: 0.723639607615
    w: -0.00523496211366
twist: 
  linear: 
    x: 0.0350204965594
    y: 0.000115230404848
    z: -0.00209517948581
  angular: 
    x: 0.00339379135396
    y: -0.0224498634768
    z: 0.000525621076574
wrench: 
  force: 
    x: 2.8240134716
    y: 3.1611828804
    z: -7.9697432518
  torque: 
    x: 0.0409207195044
    y: -0.381174951792
    z: -1.05321216583
---
pose: 
  position: 
    x: 0.720420505485
    y: -0.247082457296
    z: 0.0251846431971
  orientation: 
    x: 0.689199848297
    y: 0.0232582999554
    z: 0.724173921992
    w: -0.00589502315346
twist: 
  linear: 
    x: 0.0377284130763
    y: -0.000145722435147
    z: 0.00351444676421
  angular: 
    x: 0.0266001421267
    y: -0.0218576039413
    z: 0.00714190111805
wrench: 
  force: 
    x: 3.33649086952
    y: 3.02505350113
    z: -8.46686649323
  torque: 
    x: 0.0280048698187
    y: -0.527033925056
    z: -1.01247763634
---
pose: 
  position: 
    x: 0.72030453177
    y: -0.246879503322
    z: 0.0245536927561
  orientation: 
    x: 0.689879966597
    y: 0.0233153275259
    z: 0.723523829235
    w: -0.0059410200016
twist: 
  linear: 
    x: 0.0262466670191
    y: -0.00391264614
    z: -0.00941366540241
  angular: 
    x: 0.0157843260848
    y: -0.00896136844757
    z: -0.0150266650593
wrench: 
  force: 
    x: 3.0970056057
    y: 2.86088609695
    z: -8.00300788879
  torque: 
    x: -0.0442436337471
    y: -0.396063506603
    z: -0.922460198402
---
pose: 
  position: 
    x: 0.720316257254
    y: -0.247849957076
    z: 0.0237945597535
  orientation: 
    x: 0.69047591928
    y: 0.0234846514063
    z: 0.722957436584
    w: -0.00490111518853
twist: 
  linear: 
    x: 0.0220201060017
    y: 0.00746855749875
    z: -0.010910589602
  angular: 
    x: -0.0218996014456
    y: 0.00699660202969
    z: 0.0171926476669
wrench: 
  force: 
    x: 2.99091982841
    y: 3.18352651596
    z: -7.75166416168
  torque: 
    x: 0.0396144986153
    y: -0.322592318058
    z: -1.07854068279
---
pose: 
  position: 
    x: 0.721437067521
    y: -0.247836962893
    z: 0.0251813914567
  orientation: 
    x: 0.689366412017
    y: 0.023428788634
    z: 0.724018854979
    w: -0.00466256168965
twist: 
  linear: 
    x: 0.0388239386553
    y: -0.00116294259084
    z: -0.000880421156898
  angular: 
    x: -0.0255145090873
    y: -0.00227953704709
    z: 0.00732685767792
wrench: 
  force: 
    x: 3.17734861374
    y: 3.38976931572
    z: -7.81622600555
  torque: 
    x: -0.0150156021118
    y: -0.387028098106
    z: -1.07919943333
---
pose: 
  position: 
    x: 0.721979310933
    y: -0.247281530735
    z: 0.0250751733598
  orientation: 
    x: 0.689201269053
    y: 0.0236502727985
    z: 0.724162878615
    w: -0.0055136710644
twist: 
  linear: 
    x: 0.0601003771625
    y: -0.0126977651481
    z: 0.0215086513904
  angular: 
    x: 0.00781005038382
    y: -0.0780020695011
    z: -0.0154730929347
wrench: 
  force: 
    x: 3.3728260994
    y: 3.2004904747
    z: -7.72963953018
  torque: 
    x: -0.00750944018364
    y: -0.365593969822
    z: -1.04012453556
---
pose: 
  position: 
    x: 0.722960329258
    y: -0.247938844624
    z: 0.025834898692
  orientation: 
    x: 0.688389669722
    y: 0.0233082850764
    z: 0.724949277433
    w: -0.00499315688767
twist: 
  linear: 
    x: 0.0475822969007
    y: -0.00470813642776
    z: 0.00731811481414
  angular: 
    x: 0.0108280458596
    y: -0.0551991026684
    z: -0.00196757599918
wrench: 
  force: 
    x: 2.66186118126
    y: 3.04160761833
    z: -6.88408041
  torque: 
    x: -0.0518378168344
    y: -0.0793704763055
    z: -0.954324483871
---
pose: 
  position: 
    x: 0.722540340589
    y: -0.248002132109
    z: 0.02467138249
  orientation: 
    x: 0.689253323303
    y: 0.0230221146916
    z: 0.724133192591
    w: -0.00556398594913
twist: 
  linear: 
    x: 0.0364927917737
    y: -0.00790766560905
    z: 0.00165571596515
  angular: 
    x: 0.0329603287526
    y: -0.0296608245922
    z: -0.0072072596161
wrench: 
  force: 
    x: 2.17218780518
    y: 3.12567424774
    z: -6.68029880524
  torque: 
    x: 0.00841407477856
    y: -0.0697801038623
    z: -1.0489166975
---
pose: 
  position: 
    x: 0.723109830168
    y: -0.247612756636
    z: 0.0251878078037
  orientation: 
    x: 0.688669389277
    y: 0.0231082989924
    z: 0.724688105791
    w: -0.00525624541845
twist: 
  linear: 
    x: 0.0375350210197
    y: -0.00963941071673
    z: 0.0014549128675
  angular: 
    x: -0.00190127479378
    y: -0.0244136032976
    z: -0.0137502637222
wrench: 
  force: 
    x: 2.50299143791
    y: 2.83884000778
    z: -7.18244075775
  torque: 
    x: -0.0357287079096
    y: -0.24899224937
    z: -0.935194075108
---
pose: 
  position: 
    x: 0.723394582997
    y: -0.247675789622
    z: 0.0249269232701
  orientation: 
    x: 0.688956629428
    y: 0.0229818394543
    z: 0.724415914225
    w: -0.00567283359307
twist: 
  linear: 
    x: 0.0379645609561
    y: 0.0155426390232
    z: 0.0129967390215
  angular: 
    x: 0.0661461467049
    y: -0.0425515696003
    z: 0.025055377989
wrench: 
  force: 
    x: 3.27970266342
    y: 3.12615203857
    z: -7.77402591705
  torque: 
    x: 0.0752335935831
    y: -0.363421231508
    z: -1.09214997292
---
pose: 
  position: 
    x: 0.723270133934
    y: -0.248056620968
    z: 0.0246355030536
  orientation: 
    x: 0.689371919559
    y: 0.0228443887884
    z: 0.724025801332
    w: -0.00557937539054
twist: 
  linear: 
    x: 0.0378361183443
    y: -0.0129903850849
    z: 0.00693331055206
  angular: 
    x: 0.0118791443379
    y: -0.0314432376127
    z: -0.0176292639524
wrench: 
  force: 
    x: 2.94378995895
    y: 3.06114339828
    z: -7.40082883835
  torque: 
    x: 0.00429509580135
    y: -0.285154670477
    z: -1.01131927967
---
pose: 
  position: 
    x: 0.723971298564
    y: -0.247933327699
    z: 0.0247383543289
  orientation: 
    x: 0.689099688045
    y: 0.0229108612462
    z: 0.724283369324
    w: -0.00550575097391
twist: 
  linear: 
    x: 0.0288358078462
    y: -0.0167640630142
    z: -0.0103847166247
  angular: 
    x: -0.00537802340842
    y: 0.0212180494304
    z: -0.0243054344496
wrench: 
  force: 
    x: 2.50712966919
    y: 3.05758333206
    z: -7.4395608902
  torque: 
    x: -0.0446708202362
    y: -0.339108765125
    z: -0.97192466259
---
pose: 
  position: 
    x: 0.724384653513
    y: -0.24787127894
    z: 0.0251582409231
  orientation: 
    x: 0.688828886215
    y: 0.0230511809934
    z: 0.724535739136
    w: -0.00560100751529
twist: 
  linear: 
    x: 0.0296790998526
    y: -0.00509333886302
    z: -0.00777708451095
  angular: 
    x: 0.00565291636915
    y: 0.00489473659326
    z: -0.00581290534242
wrench: 
  force: 
    x: 2.89937877655
    y: 3.28711462021
    z: -7.58452796936
  torque: 
    x: 0.0355851352215
    y: -0.307654708624
    z: -1.10820615292
---
pose: 
  position: 
    x: 0.724821014696
    y: -0.248064319543
    z: 0.0249634895512
  orientation: 
    x: 0.688836420183
    y: 0.0227291435259
    z: 0.7245400671
    w: -0.0054280227279
twist: 
  linear: 
    x: 0.0292716874674
    y: 0.00261404828261
    z: -0.00469739421423
  angular: 
    x: -0.0247164950432
    y: 0.0167491352764
    z: 0.0154842857087
wrench: 
  force: 
    x: 3.22630286217
    y: 2.99501943588
    z: -8.06652641296
  torque: 
    x: -0.0255911499262
    y: -0.485643297434
    z: -0.96559625864
---
pose: 
  position: 
    x: 0.725376048584
    y: -0.247719657389
    z: 0.0249943709945
  orientation: 
    x: 0.688678148473
    y: 0.0231404340039
    z: 0.724676593378
    w: -0.00554645282356
twist: 
  linear: 
    x: 0.0381895183927
    y: 0.0103060181966
    z: -0.013950789654
  angular: 
    x: -0.00142133376728
    y: 0.0152904844619
    z: 0.0224028314701
wrench: 
  force: 
    x: 3.36285734177
    y: 2.94867634773
    z: -8.12452793121
  torque: 
    x: -0.010170340538
    y: -0.463311076164
    z: -0.958280026913
---
pose: 
  position: 
    x: 0.725666161176
    y: -0.247974223798
    z: 0.0247062600252
  orientation: 
    x: 0.688826067241
    y: 0.0229074578464
    z: 0.7245435105
    w: -0.00553162323668
twist: 
  linear: 
    x: 0.0401184431205
    y: 0.00922246346829
    z: 0.00654452777612
  angular: 
    x: 0.0227776686657
    y: -0.0371668665352
    z: 0.00462975125377
wrench: 
  force: 
    x: 2.65355372429
    y: 3.30090045929
    z: -7.21107435226
  torque: 
    x: 0.0333064869046
    y: -0.154625341296
    z: -1.13491737843
---
pose: 
  position: 
    x: 0.726367160381
    y: -0.248000411657
    z: 0.0252071172801
  orientation: 
    x: 0.68840969331
    y: 0.0229460660536
    z: 0.724938301834
    w: -0.00548003126426
twist: 
  linear: 
    x: 0.0445226489425
    y: -0.0245176555048
    z: 0.014765437948
  angular: 
    x: -0.0310599400473
    y: -0.0753015862269
    z: -0.0264835070761
wrench: 
  force: 
    x: 2.14324808121
    y: 2.59908127785
    z: -6.76674365997
  torque: 
    x: -0.097898632288
    y: -0.00143951026257
    z: -0.796426594257
---
pose: 
  position: 
    x: 0.726245472853
    y: -0.247374515746
    z: 0.0245522667436
  orientation: 
    x: 0.688953152246
    y: 0.0226069809823
    z: 0.724426487454
    w: -0.00622436319282
twist: 
  linear: 
    x: 0.0343240141548
    y: -0.000128029963253
    z: -0.00472912815571
  angular: 
    x: -0.0209093748942
    y: -0.00426792864701
    z: 0.00355770759695
wrench: 
  force: 
    x: 2.57980132103
    y: 2.87207102776
    z: -7.20688676834
  torque: 
    x: -0.0510743707418
    y: -0.12533070147
    z: -0.909745514393
---
pose: 
  position: 
    x: 0.726793254514
    y: -0.247320542911
    z: 0.0249180143239
  orientation: 
    x: 0.688530761445
    y: 0.0231402132534
    z: 0.724813962487
    w: -0.00588564855941
twist: 
  linear: 
    x: 0.0346144604948
    y: 0.00438989934285
    z: -0.00224552605172
  angular: 
    x: -0.00898829786016
    y: -0.000453732205391
    z: 0.00170260459957
wrench: 
  force: 
    x: 3.1947479248
    y: 3.27552485466
    z: -7.69844913483
  torque: 
    x: 0.0221047252417
    y: -0.241127967834
    z: -1.09533810616
---
pose: 
  position: 
    x: 0.727353604648
    y: -0.24776949711
    z: 0.0251774905976
  orientation: 
    x: 0.688261019954
    y: 0.0232872633524
    z: 0.725069072391
    w: -0.00541405950564
twist: 
  linear: 
    x: 0.0356212813338
    y: 0.00586649218278
    z: -0.00753639622963
  angular: 
    x: 0.0120344775849
    y: 0.00161681748926
    z: 0.00502359066551
wrench: 
  force: 
    x: 3.13971114159
    y: 3.03126382828
    z: -7.79528856277
  torque: 
    x: 0.0175025314093
    y: -0.23152089119
    z: -1.01347494125
---
pose: 
  position: 
    x: 0.727494686763
    y: -0.248201901141
    z: 0.0251428608796
  orientation: 
    x: 0.68828217983
    y: 0.0230185298312
    z: 0.725057730303
    w: -0.00539221107859
twist: 
  linear: 
    x: 0.0371853980288
    y: -0.00352242426676
    z: -0.00313175926771
  angular: 
    x: 0.00451355509695
    y: -0.0200773457205
    z: 0.00295966359135
wrench: 
  force: 
    x: 2.3442029953
    y: 3.05508136749
    z: -7.07350826263
  torque: 
    x: -0.0228191018105
    y: -0.085326962173
    z: -1.0174356699
---
pose: 
  position: 
    x: 0.727943037252
    y: -0.248447939159
    z: 0.0249116671823
  orientation: 
    x: 0.688693549961
    y: 0.0232254871128
    z: 0.724663426014
    w: -0.00496890212595
twist: 
  linear: 
    x: 0.0358030962493
    y: -0.0113985287358
    z: -0.000548564854482
  angular: 
    x: -0.0113781796171
    y: -0.0102219890514
    z: -0.00722509694682
wrench: 
  force: 
    x: 2.25133037567
    y: 3.30083703995
    z: -7.06291055679
  torque: 
    x: 0.0242031365633
    y: -0.0720598101616
    z: -1.13374888897
---
pose: 
  position: 
    x: 0.728070784792
    y: -0.248032930936
    z: 0.0248338682596
  orientation: 
    x: 0.688404373155
    y: 0.0232239261796
    z: 0.724936322602
    w: -0.00523416156029
twist: 
  linear: 
    x: 0.0482458250659
    y: 0.0033610907019
    z: 0.0143583861736
  angular: 
    x: 0.00163658527454
    y: -0.0476574294416
    z: -0.0138163446438
wrench: 
  force: 
    x: 3.09929299355
    y: 3.31103539467
    z: -7.98164606094
  torque: 
    x: 0.0869612544775
    y: -0.300160288811
    z: -1.15168511868
---
pose: 
  position: 
    x: 0.728210828782
    y: -0.248292466562
    z: 0.0245295134937
  orientation: 
    x: 0.68841849487
    y: 0.0228306087388
    z: 0.724934500599
    w: -0.00535808420785
twist: 
  linear: 
    x: 0.0316461414039
    y: -0.00234479089926
    z: -0.00195334452968
  angular: 
    x: -0.0183710710212
    y: -0.0208644308911
    z: 0.00480721722481
wrench: 
  force: 
    x: 3.35029029846
    y: 3.07819461823
    z: -8.556889534
  torque: 
    x: 0.0414040386677
    y: -0.477746576071
    z: -1.04132246971
---
pose: 
  position: 
    x: 0.728518507572
    y: -0.248473450373
    z: 0.0242901522318
  orientation: 
    x: 0.688694247345
    y: 0.022785009475
    z: 0.724677010764
    w: -0.00493022181619
twist: 
  linear: 
    x: 0.0376152749266
    y: -0.0010773294184
    z: 0.0160809081061
  angular: 
    x: -0.00728238635423
    y: -0.0486495042028
    z: -0.00218968178377
wrench: 
  force: 
    x: 2.71708083153
    y: 3.4255399704
    z: -7.8513045311
  torque: 
    x: 0.0347881242633
    y: -0.302980065346
    z: -1.15291762352
---
pose: 
  position: 
    x: 0.729642888097
    y: -0.248404857777
    z: 0.0251356180859
  orientation: 
    x: 0.688132976095
    y: 0.0228362961023
    z: 0.725206857144
    w: -0.00515025658204
twist: 
  linear: 
    x: 0.0305691353403
    y: 0.00710688902421
    z: 0.00163713724831
  angular: 
    x: 0.028691092468
    y: -0.00352005756846
    z: 0.0209360128427
wrench: 
  force: 
    x: 2.55991530418
    y: 3.38234186172
    z: -7.7008895874
  torque: 
    x: 0.0420063734055
    y: -0.260572493076
    z: -1.17219996452
---
pose: 
  position: 
    x: 0.729212167471
    y: -0.248392078417
    z: 0.0242698971236
  orientation: 
    x: 0.688411312304
    y: 0.0227975514861
    z: 0.724943733631
    w: -0.00516912061686
twist: 
  linear: 
    x: 0.0355967839106
    y: -0.012899912852
    z: -0.00224093698847
  angular: 
    x: 0.0110567274753
    y: -0.0126022041377
    z: -0.0172547871944
wrench: 
  force: 
    x: 2.95121955872
    y: 3.54022836685
    z: -8.08769989014
  torque: 
